,facility_title,link,settlement,facility_type,facility_type_eng,address,website,latitude,longitude
0,Агеевский ФАП,https://healthcare.by/instinfo.php?orgnum=16445,Агеевка,ФАП,FAP,"ул. Сиреневая, 9, 213114, д. Агеевка, Могилевский р-н, Могилевская обл.",,53.959718,30.48202
1,Адамовский ФАП,https://healthcare.by/instinfo.php?orgnum=17185,Адамово,ФАП,FAP,"д. Адамово, Воложинский р-н, Минская обл.",,54.138781,26.308645
2,Адаховщинский ФАП,https://healthcare.by/instinfo.php?orgnum=18082,Адаховщина,ФАП,FAP,"пер. Парковый, 10, 225372, д. Адаховщина, Ляховичский р-н, Брестская обл.",,53.153936,26.180716
3,Азделинский ФАП,https://healthcare.by/instinfo.php?orgnum=15701,Азделино,ФАП,FAP,"ул. Новая, 1а, 247025, д. Азделино, Гомельский р-н, Гомельская обл.",,52.540376,30.744805
4,Азинский ФАП,https://healthcare.by/instinfo.php?orgnum=15299,Азино,ФАП,FAP,"211424, д. Азино, Полоцкий р-н, Витебская обл.",,55.623392,28.643457
5,Александровский ФАП,https://healthcare.by/instinfo.php?orgnum=16081,Александровка,ФАП,FAP,"д. 9А, 247507, д. Александровка, Речицкий р-н, Гомельская обл.",,52.315905,30.582758
6,Александровский ФАП,https://healthcare.by/instinfo.php?orgnum=15850,Александровка,ФАП,FAP,"ул. Первомайская, 85, 247718, д. Александровка, Калинковичский р-н, Гомельская обл.",,52.153072,29.499695
7,Алексеевичский ФАП,https://healthcare.by/instinfo.php?orgnum=17747,Алексеевичи,ФАП,FAP,"ул. Ленина, 18, 225834, д. Алексеевичи, Дрогичинский р-н, Брестская обл.",,52.279236,24.996368
8,Алексиничский ФАП,https://healthcare.by/instinfo.php?orgnum=15416,Алексиничи,ФАП,FAP,"д. Алексиничи, Сенненский р-н, Витебская обл.",,54.770733,29.972379
9,Алешковичский ФАП,https://healthcare.by/instinfo.php?orgnum=16950,Олешковичи,ФАП,FAP,"213170, д. Олешковичи, Белыничский р-н, Могилевская обл.",,54.037942,29.635951
10,Альбянский ФАП,https://healthcare.by/instinfo.php?orgnum=14945,Биозавода,ФАП,FAP,"п. Биозавода, Несвижский р-н, Минская обл.",,53.240404,26.591309
11,Амбросовичский ФАП,https://healthcare.by/instinfo.php?orgnum=15506,Амбросовичи,ФАП,FAP,"211262, д. Амбросовичи, Шумилинский р-н, Витебская обл.",,55.319561,29.476896
12,"Амховский ФАП, ФАП",https://healthcare.by/instinfo.php?orgnum=29157,Амховая 1-я,ФАП,FAP,"ул. Молодежная, 5, 213109, д. Амховая 1-я, Могилевский р-н, Могилевская обл.",,53.794321,30.526029
13,Ананичский ФАП,https://healthcare.by/instinfo.php?orgnum=15117,Ананичи,ФАП,FAP,"д. Ананичи, Пуховичский р-н, Минская обл.",,53.631075,28.128722
14,Ананчицкий ФАП,https://healthcare.by/instinfo.php?orgnum=17327,Ананчицы,ФАП,FAP,"ул. Козлова, 1, 223741, д. Ананчицы, Солигорский р-н, Минская обл.",,52.528714,27.650881
15,Андроновский ФАП,https://healthcare.by/instinfo.php?orgnum=15338,Андроны,ФАП,FAP,"Юньковский с/с, 211875, д. Андроны, Поставский р-н, Витебская обл.",,55.058812,26.918009
16,Антоновский ФАП,https://healthcare.by/instinfo.php?orgnum=15849,Антоновка,ФАП,FAP,"ул. Советская, 44А, 247730, д. Антоновка, Калинковичский р-н, Гомельская обл.",,52.163432,29.281242
17,Антоновский ФАП,https://healthcare.by/instinfo.php?orgnum=15810,Антоновка,ФАП,FAP,"ул. Интернациональная, 12, 247248, д. Антоновка, Жлобинский р-н, Гомельская обл.",,52.983243,30.149141
18,Антоновский ФАП,https://healthcare.by/instinfo.php?orgnum=15756,Антоновка,ФАП,FAP,"ул. Комсомольская, 37, 247073, д. Антоновка, Добрушский р-н, Гомельская обл.",,52.245392,31.23683
19,Антоновский ФАП,https://healthcare.by/instinfo.php?orgnum=16661,Антоновка,ФАП,FAP,"ул. Юбилейная, 5, 213220, д. Антоновка, Чаусский р-н, Могилевская обл.",,53.813384,30.638094
20,Антопольевский ФАП,https://healthcare.by/instinfo.php?orgnum=15473,Антополье,ФАП,FAP,"ул. Гагарина, 38, 211157, д. Антополье, Чашникский р-н, Витебская обл.",,54.661953,29.389588
21,Арабовщинский ФАП,https://healthcare.by/instinfo.php?orgnum=17630,Арабовщина,ФАП,FAP,"ул. Карвата, 1, 225314, д. Арабовщина, Барановичский р-н, Брестская обл.",,53.261949,26.042106
22,Артуковский ФАП,https://healthcare.by/instinfo.php?orgnum=16080,Артуки,ФАП,FAP,"ул. Советская, 37а, 247503, д. Артуки, Речицкий р-н, Гомельская обл.",,52.149155,30.533054
23,Асаревичский ФАП,https://healthcare.by/instinfo.php?orgnum=15630,Асаревичи,ФАП,FAP,"ул. Колхозная, 6, 247662, д. Асаревичи, Брагинский р-н, Гомельская обл.",,51.60872,30.49448
24,Аталезский ФАП,https://healthcare.by/instinfo.php?orgnum=16944,Аталезь,ФАП,FAP,"ул. Мамонтова, 5, 222673, аг. Аталезь, Столбцовский р-н, Минская обл.",,53.571589,26.59899
25,Ахремовская амбулатория врача общей практики,https://healthcare.by/instinfo.php?orgnum=15097,Ахремовцы,Амбулатория,Outpatient Clinic,"ул. Школьная, 76, 211972, д. Ахремовцы, Браславский р-н, Витебская обл.",,55.575042,27.117093
26,Б. Негновичский ФАП,https://healthcare.by/instinfo.php?orgnum=16887,Большие Негновичи,ФАП,FAP,"ул. Центральная, д. Большие Негновичи, Борисовский р-н, Минская обл.",,54.228422,28.753743
27,Б. Осовский ФАП,https://healthcare.by/instinfo.php?orgnum=15324,Большое Осово,ФАП,FAP,"д. Большое Осово, Крупский р-н, Минская обл.",,54.46186,28.786298
28,Бабировский ФАП,https://healthcare.by/instinfo.php?orgnum=16060,Бабирово,ФАП,FAP,"Кирова, 52, 213879, д. Бабирово, Глусский р-н, Могилевская обл.",,53.037153,28.552664
29,Бабичский ФАП,https://healthcare.by/instinfo.php?orgnum=28087,Бабичи,ФАП,FAP,"ул. Садовая, 1, д. Бабичи, Чечерский р-н, Гомельская обл.",,52.878986,31.178484
30,Бабичский ФАП,https://healthcare.by/instinfo.php?orgnum=16089,Бабичи,ФАП,FAP,"ул. Мастрюкова, 17, 247534, д. Бабичи, Речицкий р-н, Гомельская обл.",,52.261645,30.00356
31,Бабуничский ФАП,https://healthcare.by/instinfo.php?orgnum=16035,Бабуничи,ФАП,FAP,"ул. Шурина, 3, 247932, д. Бабуничи, Петриковский р-н, Гомельская обл.",,52.277098,28.467153
32,Баевский ФАП,https://healthcare.by/instinfo.php?orgnum=15221,Баево,ФАП,FAP,"211052, д. Баево, Дубровенский р-н, Витебская обл.",,54.484749,31.107814
33,Бакуновский-1 ФАП,https://healthcare.by/instinfo.php?orgnum=17389,Бакуны-1,ФАП,FAP,"ул. Центральная, 71, 225142, д. Бакуны-1, Пружанский р-н, Брестская обл.",,52.544062,24.43458
34,Балашевичский ФАП,https://healthcare.by/instinfo.php?orgnum=16032,Балашевичи,ФАП,FAP,"Ленина, 1, 213865, д. Балашевичи, Глусский р-н, Могилевская обл.",,52.900779,28.792227
35,Балашовский ФАП,https://healthcare.by/instinfo.php?orgnum=17227,Балаши,ФАП,FAP,"ул. Малькевича, 16, д. Балаши, Вилейский р-н, Минская обл.",,54.622502,27.085122
36,Барановичский ФАП,https://healthcare.by/instinfo.php?orgnum=16720,Барановичи,ФАП,FAP,"231435, д. Барановичи, Кореличский р-н, Гродненская обл.",,53.511237,25.986186
37,Барановский ФАП,https://healthcare.by/instinfo.php?orgnum=23533,Бараново,ФАП,FAP,"д. Бараново, Гродненский р-н, Гродненская обл.",,53.518245,23.91689
38,Барбаровский ФАП,https://healthcare.by/instinfo.php?orgnum=16320,Барбаров,ФАП,FAP,"ул. Молодежная, 10-1, 247753, д. Барбаров, Мозырский р-н, Гомельская обл.",,51.904643,29.477066
39,Барсеевский ФАП,https://healthcare.by/instinfo.php?orgnum=15238,Барсеево,ФАП,FAP,"Горбовский с/с, 211204, д. Барсеево, Лиозненский р-н, Витебская обл.",,54.86256,30.706321
40,Барсуковский ФАП,https://healthcare.by/instinfo.php?orgnum=15204,Барсуки,ФАП,FAP,"ул. Молодежная, 8, 211729, д. Барсуки, Докшицкий р-н, Витебская обл.",,54.876004,27.617706
41,Барсуковский ФАП,https://healthcare.by/instinfo.php?orgnum=7244,Барсуки,ФАП,FAP,"2136506, д. Барсуки, Климовичский р-н, Могилевская обл.",,53.706929,31.906865
42,Барсуковский ФАП,https://healthcare.by/instinfo.php?orgnum=16370,Барсуки,ФАП,FAP,"ул. Центральная, 27а, д. Барсуки, Кировский р-н, Могилевская обл.",,53.240986,29.725235
43,Барсуковский ФАП,https://healthcare.by/instinfo.php?orgnum=14874,Барсуки,ФАП,FAP,"д. Барсуки, Смолевичский р-н, Минская обл.",,53.995927,28.186924
44,Барчицкий ФАП,https://healthcare.by/instinfo.php?orgnum=18476,Барчицы,ФАП,FAP,"ул. Садовая, 2а, д. Барчицы, Кировский р-н, Могилевская обл.",,53.254257,29.670159
45,Барышевский ФАП,https://healthcare.by/instinfo.php?orgnum=16666,Барышевка,ФАП,FAP,"ул. Школьная, 57, кв. 4, 213202, д. Барышевка, Чаусский р-н, Могилевская обл.",,53.873319,31.087925
46,Бастеновичский ФАП,https://healthcare.by/instinfo.php?orgnum=16555,Бастеновичи,ФАП,FAP,"213484, д. Бастеновичи, Мстиславский р-н, Могилевская обл.",,54.032877,31.385824
47,Бастунский ФАП,https://healthcare.by/instinfo.php?orgnum=16534,Бастуны,ФАП,FAP,"231371, д. Бастуны, Вороновский р-н, Гродненская обл.",,54.077058,25.288285
48,Батченский ФАП,https://healthcare.by/instinfo.php?orgnum=17965,Батчи,ФАП,FAP,"ул. Садовая, 14, 225874, д. Батчи, Кобринский р-н, Брестская обл.",,52.240104,24.22671
49,Бацуньский ФАП,https://healthcare.by/instinfo.php?orgnum=15671,Бацунь,ФАП,FAP,"247356, д. Бацунь, Буда-Кошелевский р-н, Гомельская обл.",,52.58235,30.570505
50,Башневский ФАП,https://healthcare.by/instinfo.php?orgnum=17711,Башни,ФАП,FAP,"ул. Луговая, 20, 211279, д. Башни, Шумилинский р-н, Витебская обл.",,55.223725,29.672414
51,Безверховичский ФАП,https://healthcare.by/instinfo.php?orgnum=17138,Безверховичи,ФАП,FAP,"р. Мурашки, 19, д. Безверховичи, Слуцкий р-н, Минская обл.",,53.019975,27.444826
52,Безуевский ФАП,https://healthcare.by/instinfo.php?orgnum=16088,Безуев,ФАП,FAP,"247560, д. Безуев, 98 Речицкий р-н, Гомельская обл.",,52.26978,30.347983
53,Белановичский ФАП,https://healthcare.by/instinfo.php?orgnum=16043,Белановичи,ФАП,FAP,"ул. Первомайская, 19А, 247903, д. Белановичи, Петриковский р-н, Гомельская обл.",,52.141008,28.575077
54,Беларучский ФАП,https://healthcare.by/instinfo.php?orgnum=16918,Алекшицы,ФАП,FAP,"223114, д. Алекшицы, Логойский р-н, Минская обл.",,54.10919,27.595024
55,Белевичский ФАП,https://healthcare.by/instinfo.php?orgnum=17925,Белевичи,ФАП,FAP,"213154, д. Белевичи, Могилевский р-н, Могилевская обл.",,53.797773,29.833185
56,Белевский ФАП,https://healthcare.by/instinfo.php?orgnum=15784,Белев,ФАП,FAP,"ул. Советская, 247962, д. Белев, Житковичский р-н, Гомельская обл.",,52.449651,28.02511
57,Белицкий ФАП,https://healthcare.by/instinfo.php?orgnum=15811,Белица,ФАП,FAP,"ул. Комсомольская, 18а, 247202, д. Белица, Жлобинский р-н, Гомельская обл.",,52.93547,29.957018
58,Белоболотский ФАП,https://healthcare.by/instinfo.php?orgnum=16090,Белое Болото,ФАП,FAP,"ул. Молодежная, 23, 247514, д. Белое Болото, Речицкий р-н, Гомельская обл.",,52.259054,30.498011
59,Белодубровский ФАП,https://healthcare.by/instinfo.php?orgnum=16348,Белая Дуброва,ФАП,FAP,"ул. Школьная. 1, 213651, д. Белая Дуброва, Костюковичский р-н, Могилевская обл.",,53.249952,31.972712
60,Белолипский ФАП,https://healthcare.by/instinfo.php?orgnum=15417,Белая Липа,ФАП,FAP,"д. Белая Липа, Сенненский р-н, Витебская обл.",,54.913836,29.740039
61,"Белоусовщинский ФАП, ФАП",https://healthcare.by/instinfo.php?orgnum=28879,Белоусовщина,ФАП,FAP,"ул. Комсомольская, 14, 225178, свх. Белоусовщина, Пружанский р-н, Брестская обл.",,52.593199,24.48131
62,Бельковский ФАП,https://healthcare.by/instinfo.php?orgnum=15340,Бельки,ФАП,FAP,"211875, д. Бельки, Поставский р-н, Витебская обл.",,55.282579,27.20131
63,Бельковщинский ФАП,https://healthcare.by/instinfo.php?orgnum=15171,Бельковщина,ФАП,FAP,"211621, д. Бельковщина, Верхнедвинский р-н, Витебская обл.",,55.854921,28.130402
64,Бельский ФАП,https://healthcare.by/instinfo.php?orgnum=16274,Белая,ФАП,FAP,"ул. Советская, 21, 247763, д. Белая, Мозырский р-н, Гомельская обл.",,52.058815,29.241321
65,Бельский ФАП,https://healthcare.by/instinfo.php?orgnum=17981,Бельск,ФАП,FAP,"ул. Советская, 3, 225865, д. Бельск, Кобринский р-н, Брестская обл.",,52.016839,24.402555
66,Беляевский ФАП,https://healthcare.by/instinfo.php?orgnum=28133,Беляевка,ФАП,FAP,"ул. Новая,4, 247169, д. Беляевка, Чечерский р-н, Гомельская обл.",,52.96082,31.024639
67,Белянский ФАП,https://healthcare.by/instinfo.php?orgnum=16937,Белое,ФАП,FAP,"223137, д. Белое, Логойский р-н, Минская обл.",,54.462268,27.585008
68,Бенинский ФАП,https://healthcare.by/instinfo.php?orgnum=16791,Бенин,ФАП,FAP,"ул. Приозерная, 7а, 231415, д. Бенин, Новогрудский р-н, Гродненская обл.",,53.754194,25.835808
69,Бервеновский ФАП,https://healthcare.by/instinfo.php?orgnum=15673,Ховхло,ФАП,FAP,"247395, д. Ховхло, Буда-Кошелевский р-н, Гомельская обл.",,52.521821,30.421995
70,Бережецкий ФАП,https://healthcare.by/instinfo.php?orgnum=15786,Бережцы,ФАП,FAP,"пер. Советский, 7, 247964, д. Бережцы, Житковичский р-н, Гомельская обл.",,51.994413,27.639742
71,Березняковский ФАП,https://healthcare.by/instinfo.php?orgnum=15790,Березняки,ФАП,FAP,"ул. Ленинская, 247968, д. Березняки, Житковичский р-н, Гомельская обл.",,52.491898,27.497898
72,Березняковский ФАП,https://healthcare.by/instinfo.php?orgnum=15878,Березняки,ФАП,FAP,"ул. Мира, 8, 247733, д. Березняки, Калинковичский р-н, Гомельская обл.",,52.389736,29.133029
73,Березовичский ФАП,https://healthcare.by/instinfo.php?orgnum=15873,Березовичи,ФАП,FAP,"ул. Клубная, 7, 213860, д. Березовичи, Бобруйский р-н, Могилевская обл.",,53.12321,29.140432
74,Березовский ФАП,https://healthcare.by/instinfo.php?orgnum=18066,Береза,ФАП,FAP,"ул. Центральная, 10, 225890, д. Береза, Кобринский р-н, Брестская обл.",,52.333574,24.337876
75,Березовский ФАП,https://healthcare.by/instinfo.php?orgnum=16622,Березовка,ФАП,FAP,"213244, д. Березовка, Славгородский р-н, Могилевская обл.",,53.63871,30.982786
76,Березовский ФАП,https://healthcare.by/instinfo.php?orgnum=17613,Березовка,ФАП,FAP,"ул. Садовая, 24Б, 211719, д. Березовка, Докшицкий р-н, Витебская обл.",,54.784047,27.660691
77,Березовский ФАП,https://healthcare.by/instinfo.php?orgnum=15899,Березовка,ФАП,FAP,"ул. Молодежная, 35, 247723, д. Березовка, Калинковичский р-н, Гомельская обл.",,51.926436,29.586589
78,Березовский ФАП,https://healthcare.by/instinfo.php?orgnum=16056,Березовка,ФАП,FAP,"ул. Молодежная, 1, 213884, д. Березовка, Глусский р-н, Могилевская обл.",,52.891131,28.851614
79,Березцовский ФАП,https://healthcare.by/instinfo.php?orgnum=17483,Березцы,ФАП,FAP,"ул. Центральная, 2, 225763, д. Березцы, Пинский р-н, Брестская обл.",,52.12647,26.613893
80,Беседовичский ФАП,https://healthcare.by/instinfo.php?orgnum=17947,Беседы,ФАП,FAP,"213663, д. Беседы, Хотимский р-н, Могилевская обл.",,53.40529,32.514791
81,Беседский ФАП,https://healthcare.by/instinfo.php?orgnum=16070,Беседки,ФАП,FAP,"ул. Школьная, 1А, 247900, д. Беседки, Петриковский р-н, Гомельская обл.",,52.275307,28.797859
82,Бильдюжский ФАП,https://healthcare.by/instinfo.php?orgnum=15492,Бильдюги,ФАП,FAP,"211915, д. Бильдюги, Шарковщинский р-н, Витебская обл.",,55.398804,27.587235
83,Биордовский ФАП,https://healthcare.by/instinfo.php?orgnum=17889,Биорда,ФАП,FAP,"213904, д. Биорда, Кличевский р-н, Могилевская обл.",,53.55226,29.380893
84,Бискупский ФАП,https://healthcare.by/instinfo.php?orgnum=16802,Бискупцы,ФАП,FAP,"231303, д. Бискупцы, Лидский р-н, Гродненская обл.",,53.845955,25.559136
85,Благовичский ФАП,https://healthcare.by/instinfo.php?orgnum=16662,Благовичи,ФАП,FAP,"ул. Молодежная, 4, 213212, д. Благовичи, Чаусский р-н, Могилевская обл.",,53.836084,30.839191
86,Блужский ФАП,https://healthcare.by/instinfo.php?orgnum=15118,Блужа,ФАП,FAP,"д. Блужа, Пуховичский р-н, Минская обл.",,53.437009,28.229845
87,Бобовский ФАП,https://healthcare.by/instinfo.php?orgnum=15812,Бобовка,ФАП,FAP,"ул. Интернациональная, 27а, 247246, д. Бобовка, Жлобинский р-н, Гомельская обл.",,52.894054,30.04314
88,Бобренятский ФАП,https://healthcare.by/instinfo.php?orgnum=16325,Бобренята,ФАП,FAP,"ул. Садовая, 6-2, 247750, д. Бобренята, Мозырский р-н, Гомельская обл.",,52.012277,29.284162
89,Бобровичский ФАП,https://healthcare.by/instinfo.php?orgnum=17188,Бобровичи,ФАП,FAP,"д. Бобровичи, Воложинский р-н, Минская обл.",,54.014162,26.643205
90,Бобровичский ФАП,https://healthcare.by/instinfo.php?orgnum=19341,Бобровичи,ФАП,FAP,"247704, н.п. Бобровичи, Калинковичский р-н, Гомельская обл.",,52.29319,29.369125
91,Бобровский ФАП,https://healthcare.by/instinfo.php?orgnum=15222,Боброво,ФАП,FAP,"ул. Садовая, 2, 211057, д. Боброво, Дубровенский р-н, Витебская обл.",,54.561563,30.767065
92,Бобровский ФАП,https://healthcare.by/instinfo.php?orgnum=15614,Боброво,ФАП,FAP,"211197, д. Боброво, Лепельский р-н, Витебская обл.",,54.851521,28.706527
93,Бобыничский ФАП,https://healthcare.by/instinfo.php?orgnum=15300,Бобыничи,ФАП,FAP,"Бобыничский с/с, ул. Школьная, 10, 211431, д. Бобыничи, Полоцкий р-н, Витебская обл.",,55.454841,28.768206
94,Богдановский ФАП,https://healthcare.by/instinfo.php?orgnum=15435,Богданово,ФАП,FAP,"д. Богданово, Сенненский р-н, Витебская обл.",,54.701121,29.796471
95,Богдянский ФАП,https://healthcare.by/instinfo.php?orgnum=16497,Богди,ФАП,FAP,"231924, д. Богди, Волковысский р-н, Гродненская обл.",,53.070003,24.637644
96,Богинский ФАП,https://healthcare.by/instinfo.php?orgnum=15098,Богино,ФАП,FAP,"211995, д. Богино, Браславский р-н, Витебская обл.",,55.419468,26.80085
97,Богушовский ФАП,https://healthcare.by/instinfo.php?orgnum=15874,Богушовка,ФАП,FAP,"ул. Советская, 6, 213843, д. Богушовка, Бобруйский р-н, Могилевская обл.",,53.093397,28.941518
98,Бокиничский ФАП,https://healthcare.by/instinfo.php?orgnum=17481,Бокиничи,ФАП,FAP,"225732, д. Бокиничи, Пинский р-н, Брестская обл.",,52.285109,26.395036
99,Бокшицкий ФАП,https://healthcare.by/instinfo.php?orgnum=17140,Бокщицы,ФАП,FAP,"223640, д. Бокщицы, Слуцкий р-н, Минская обл.",,53.078004,27.606414
100,Болецкий ФАП,https://healthcare.by/instinfo.php?orgnum=15588,Новый Болецк,ФАП,FAP,"д. Новый Болецк, Городокский р-н, Витебская обл.",,55.518698,30.037453
101,Болколовский ФАП,https://healthcare.by/instinfo.php?orgnum=15491,Болколы,ФАП,FAP,"211919, д. Болколы, Шарковщинский р-н, Витебская обл.",,55.398804,27.587235
102,Болоновоселецкий ФАП,https://healthcare.by/instinfo.php?orgnum=16011,Болонов-Селец,ФАП,FAP,"213142, д. Болонов-Селец, Быховский р-н, Могилевская обл.",,53.621469,29.921499
103,Болотнянский ФАП,https://healthcare.by/instinfo.php?orgnum=16127,Болотня,ФАП,FAP,"247290, д. Болотня, Рогачевский р-н, Гомельская обл.",,53.116633,30.223926
104,Болотский ФАП,https://healthcare.by/instinfo.php?orgnum=18064,Болота,ФАП,FAP,"ул. Комсомольская, 13, 225890, д. Болота, Кобринский р-н, Брестская обл.",,52.136233,24.522804
105,Болотчицкий ФАП,https://healthcare.by/instinfo.php?orgnum=17141,Болотчицы,ФАП,FAP,"ул. Н. Село, 50, д. Болотчицы, Слуцкий р-н, Минская обл.",,52.918592,27.412253
106,Больтеникский ФАП,https://healthcare.by/instinfo.php?orgnum=16539,Больтеники,ФАП,FAP,"д. Больтеники, Вороновский р-н, Гродненская обл.",,54.08207,25.146342
107,Больтишский ФАП,https://healthcare.by/instinfo.php?orgnum=16537,Больтишки,ФАП,FAP,"231399, д. Больтишки, Вороновский р-н, Гродненская обл.",,53.939646,25.041437
108,Больше-Автюковский ФАП,https://healthcare.by/instinfo.php?orgnum=15851,Великие Автюки,ФАП,FAP,"пер. Школьный, 3, 247726, д. Великие Автюки, Калинковичский р-н, Гомельская обл.",,52.073454,29.525485
109,Больше-Малешевский ФАП,https://healthcare.by/instinfo.php?orgnum=21578,Большое Малешево,ФАП,FAP,"ул. Центральная, 11, 225555, д. Большое Малешево, Столинский р-н, Брестская обл.",,52.068671,27.50539
110,Большеорловская амбулатория врача общей практики,https://healthcare.by/instinfo.php?orgnum=21582,Большие Орлы,Амбулатория,Outpatient Clinic,"ул. Советская, 22б, д. Большие Орлы, Столинский р-н, Брестская обл.",,52.050664,27.03991
111,Большешиловичский ФАП,https://healthcare.by/instinfo.php?orgnum=17050,Большие Шиловичи,ФАП,FAP,"231821, д. Большие Шиловичи, Слонимский р-н, Гродненская обл.",,53.032426,25.380973
112,Бор-Дубенецкий ФАП,https://healthcare.by/instinfo.php?orgnum=21575,Бор Дубенец,ФАП,FAP,"ул. Советская, 2, 225546, д. Бор Дубенец, Столинский р-н, Брестская обл.",,51.999487,26.924629
113,Борздовский ФАП,https://healthcare.by/instinfo.php?orgnum=17650,Борздовка,ФАП,FAP,"211034, д. Борздовка, Оршанский р-н, Витебская обл.",,54.416179,30.653877
114,Борисовичский ФАП,https://healthcare.by/instinfo.php?orgnum=16238,Борисовичи,ФАП,FAP,"213602, д. Борисовичи, Климовичский р-н, Могилевская обл.",,53.601735,31.675702
115,Борисовщанский ФАП,https://healthcare.by/instinfo.php?orgnum=16221,Борисовщина,ФАП,FAP,"247611, д. Борисовщина, Хойникский р-н, Гомельская обл.",,51.875016,29.791701
116,Боричевичский ФАП,https://healthcare.by/instinfo.php?orgnum=17457,Боричевичи,ФАП,FAP,"225716, д. Боричевичи, Пинский р-н, Брестская обл.",,52.059386,26.470737
117,Борковский ФАП,https://healthcare.by/instinfo.php?orgnum=17150,Борки,ФАП,FAP,"ул. Юбилейная, 9, 225225, д. Борки, Березовский р-н, Брестская обл.",,52.527525,24.982804
118,Борковский ФАП,https://healthcare.by/instinfo.php?orgnum=15799,Борки,ФАП,FAP,"247981, д. Борки, Житковичский р-н, Гомельская обл.",,52.098551,27.824687
119,Борковский ФАП,https://healthcare.by/instinfo.php?orgnum=17727,Борки,ФАП,FAP,"ул. Заслонова, 1, 225443, д. Борки, Ганцевичский р-н, Брестская обл.",,52.735219,26.347192
120,Боровецкий ФАП,https://healthcare.by/instinfo.php?orgnum=18099,Боровцы,ФАП,FAP,"ул. 40 лет Победы, 225658, д. Боровцы, Лунинецкий р-н, Брестская обл.",,52.301914,26.892038
121,Боровиковский ФАП,https://healthcare.by/instinfo.php?orgnum=17293,Боровики,ФАП,FAP,"ул. Школьная, 66 А, д. Боровики, Дзержинский р-н, Минская обл.",,53.687582,27.439714
122,Боровиковский ФАП,https://healthcare.by/instinfo.php?orgnum=18098,Боровики,ФАП,FAP,"ул. Ленина, 18, 225656, д. Боровики, Лунинецкий р-н, Брестская обл.",,52.517256,26.94008
123,Боровицкий ФАП,https://healthcare.by/instinfo.php?orgnum=16185,Боровица,ФАП,FAP,"ул. Центральная, 20а, д. Боровица, Кировский р-н, Могилевская обл.",,53.341199,29.578863
124,Боровобудский ФАП,https://healthcare.by/instinfo.php?orgnum=15916,Боровая Буда,ФАП,FAP,"пер. Мирный, 1а, 247183, д. Боровая Буда, Кормянский р-н, Гомельская обл.",,53.035719,30.62399
125,Боровской ФАП,https://healthcare.by/instinfo.php?orgnum=15948,Боровое,ФАП,FAP,"ул. Школьная, 9, 247846, д. Боровое, Лельчицкий р-н, Гомельская обл.",,51.881699,28.082989
126,Бородиничский ФАП,https://healthcare.by/instinfo.php?orgnum=15099,Бородиничи,ФАП,FAP,"д. Бородиничи, Браславский р-н, Витебская обл.",,55.557821,26.985894
127,Борский ФАП,https://healthcare.by/instinfo.php?orgnum=15119,Бор,ФАП,FAP,"д. Бор, Пуховичский р-н, Минская обл.",,53.528887,27.884793
128,Борский ФАП,https://healthcare.by/instinfo.php?orgnum=16813,Бор,ФАП,FAP,"ул. Молодежная, 14, 231425, д. Бор, Новогрудский р-н, Гродненская обл.",,53.765979,26.152518
129,Бортниковский ФАП,https://healthcare.by/instinfo.php?orgnum=15202,Бортники,ФАП,FAP,"211794, д. Бортники, Глубокский р-н, Витебская обл.",,55.304313,28.025272
130,Борунский ФАП,https://healthcare.by/instinfo.php?orgnum=15100,Боруны,ФАП,FAP,"ул. Школьная, 4, 211989, д. Боруны, Браславский р-н, Витебская обл.",,55.741662,26.962834
131,Борховский ФАП,https://healthcare.by/instinfo.php?orgnum=16415,Кленовица,ФАП,FAP,"д. 18 А, 247513, д. Кленовица, Речицкий р-н, Гомельская обл.",,52.416235,30.583494
132,Борщевский ФАП,https://healthcare.by/instinfo.php?orgnum=15065,Борщевка,ФАП,FAP,"211205, д. Борщевка, Витебский р-н, Витебская обл.",,55.233306,30.050326
133,Борщевский ФАП,https://healthcare.by/instinfo.php?orgnum=15754,Борщевка,ФАП,FAP,"ул. Ленина, 1а, 247087, д. Борщевка, Добрушский р-н, Гомельская обл.",,52.21197,31.563385
134,Борщевский ФАП,https://healthcare.by/instinfo.php?orgnum=16083,Борщевка,ФАП,FAP,"ул. Совхозная 1-я, 4а, 247511, д. Борщевка, Речицкий р-н, Гомельская обл.",,52.347456,30.656896
135,Босянковский ФАП,https://healthcare.by/instinfo.php?orgnum=17635,Босянки,ФАП,FAP,"211957, д. Босянки, Миорский р-н, Витебская обл.",,55.422344,28.097559
136,Ботаевский ФАП,https://healthcare.by/instinfo.php?orgnum=17950,Ботаево,ФАП,FAP,"213676, д. Ботаево, Хотимский р-н, Могилевская обл.",,53.40529,32.514791
137,Ботвиновский ФАП,https://healthcare.by/instinfo.php?orgnum=28137,Ботвиново,ФАП,FAP,"ул. Трудовая,1, 247155, д. Ботвиново, Чечерский р-н, Гомельская обл.",,52.947913,30.65906
138,Ботовский ФАП,https://healthcare.by/instinfo.php?orgnum=17503,Ботово,ФАП,FAP,"ул. Советская, 38, 225735, д. Ботово, Пинский р-н, Брестская обл.",,52.333888,26.306382
139,Бохановский ФАП,https://healthcare.by/instinfo.php?orgnum=16652,Боханы,ФАП,FAP,"213661, д. Боханы, Хотимский р-н, Могилевская обл.",,53.40529,32.514791
140,Бояничский ФАП,https://healthcare.by/instinfo.php?orgnum=15369,Бояничи,ФАП,FAP,"ул. Суворова, 2, 223860, д. Бояничи, Любанский р-н, Минская обл.",,52.715628,28.278435
141,Боярский ФАП,https://healthcare.by/instinfo.php?orgnum=17248,Бояры,ФАП,FAP,"д. Бояры, Вилейский р-н, Минская обл.",,54.462106,27.24619
142,Браздетченский ФАП,https://healthcare.by/instinfo.php?orgnum=15277,Браздетчино,ФАП,FAP,"211082, д. Браздетчино, Оршанский р-н, Витебская обл.",,54.449895,30.636387
143,Братковский ФАП,https://healthcare.by/instinfo.php?orgnum=15560,Братково,ФАП,FAP,"д. Братково, Копыльский р-н, Минская обл.",,53.11426,27.078115
144,Братский ФАП,https://healthcare.by/instinfo.php?orgnum=15984,Братское,ФАП,FAP,"ул. Дорожная, 20, 247802, д. Братское, Наровлянский р-н, Гомельская обл.",,51.449367,29.455884
145,Брашевичская амбулатория общей практики,https://healthcare.by/instinfo.php?orgnum=26815,Брашевичи,Амбулатория,Outpatient Clinic,"ул. Школьная, 1, 225833, д. Брашевичи, Дрогичинский р-н, Брестская обл.",,52.219645,25.011002
146,Бриневский ФАП,https://healthcare.by/instinfo.php?orgnum=16033,Бринёв,ФАП,FAP,"ул. Гагарина, 50, 247947, д. Бринёв, Петриковский р-н, Гомельская обл.",,52.187649,28.190903
147,Бровковский ФАП,https://healthcare.by/instinfo.php?orgnum=17078,Бровки,ФАП,FAP,"ул. Центральная, 1, д. Бровки, Минский р-н, Минская обл.",,54.046063,27.387648
148,Бродницкий ФАП,https://healthcare.by/instinfo.php?orgnum=18100,Бродница,ФАП,FAP,"ул. Новая, 31а, 225668, д. Бродница, Лунинецкий р-н, Брестская обл.",,52.298819,26.961963
149,Бродовский ФАП,https://healthcare.by/instinfo.php?orgnum=17410,Броды,ФАП,FAP,"ул. Мира, 92, 225173, д. Броды, Пружанский р-н, Брестская обл.",,52.47934,24.130518
150,Бродовский ФАП,https://healthcare.by/instinfo.php?orgnum=16893,Броды,ФАП,FAP,"ул. Спортивная, 54, 222143, д. Броды, Борисовский р-н, Минская обл.",,54.648328,28.229666
151,Брожский ФАП,https://healthcare.by/instinfo.php?orgnum=15875,Брожа,ФАП,FAP,"ул. Ленинская, 11а, 213833, п. Брожа, Бобруйский р-н, Могилевская обл.",,52.968944,29.113545
152,Брольникский ФАП,https://healthcare.by/instinfo.php?orgnum=16800,Брольники,ФАП,FAP,"ул. Центральная, 12а, 231404, д. Брольники, Новогрудский р-н, Гродненская обл.",,53.624758,25.981874
153,Брониславский ФАП,https://healthcare.by/instinfo.php?orgnum=21941,Бронислав,ФАП,FAP,"ул. Первомайская, 1, д. Бронислав, Житковичский р-н, Гомельская обл.",,52.208383,27.59665
154,Бронненский ФАП,https://healthcare.by/instinfo.php?orgnum=16084,Бронное,ФАП,FAP,"ул. Колхозная, 6, 247516, д. Бронное, Речицкий р-н, Гомельская обл.",,52.316704,30.475319
155,Бронногорский ФАП,https://healthcare.by/instinfo.php?orgnum=17146,Бронная Гора,ФАП,FAP,"здание общежития в/ч 67878, 225213, д. Бронная Гора, Березовский р-н, Брестская обл.",,52.608902,25.092066
156,Брылевский ФАП,https://healthcare.by/instinfo.php?orgnum=17926,Брили,ФАП,FAP,"ул. Юбилейная, 26, 213151, д. Брыли, Могилевский р-н, Могилевская обл.",,53.914165,30.558467
157,Бубновский ФАП,https://healthcare.by/instinfo.php?orgnum=17253,Бубны,ФАП,FAP,"ул. Молодежная, 28, д. Бубны, Вилейский р-н, Минская обл.",,54.750245,27.566583
158,Буда-Лельчицкий ФАП,https://healthcare.by/instinfo.php?orgnum=15930,Буда-Лельчицкая,ФАП,FAP,"ул. Школьная, 5, 247860, д. Буда-Лельчицкая, Лельчицкий р-н, Гомельская обл.",,51.849905,28.365742
159,Буда-Люшевский ФАП,https://healthcare.by/instinfo.php?orgnum=15645,Буда-Люшево,ФАП,FAP,"247350, д. Буда-Люшево, Буда-Кошелевский р-н, Гомельская обл.",,52.736478,30.568394
160,Буда-Софиевский ФАП,https://healthcare.by/instinfo.php?orgnum=15945,Буда-Софиевка,ФАП,FAP,"ул. Колхозная, 3, 247865, д. Буда-Софиевская, Лельчицкий р-н, Гомельская обл.",,51.998362,28.582425
161,Будаговский ФАП,https://healthcare.by/instinfo.php?orgnum=14875,Будагово,ФАП,FAP,"д. Будагово, Смолевичский р-н, Минская обл.",,53.995927,28.186924
162,Буденовский ФАП,https://healthcare.by/instinfo.php?orgnum=16965,Буденовка,ФАП,FAP,"ул. Октябрьская, 8/1-2, 231107, д. Буденовка, Ошмянский р-н, Гродненская обл.",,54.421748,25.897055
163,Будиловский ФАП,https://healthcare.by/instinfo.php?orgnum=11666,Будилово,ФАП,FAP,"ул. Школьная, 25, д. Будилово, Бешенковичский р-н, Витебская обл.",,55.048575,29.445832
164,Будищанский ФАП,https://healthcare.by/instinfo.php?orgnum=16433,Будище,ФАП,FAP,"213137, д. Будище, Могилевский р-н, Могилевская обл.",,53.86791,29.943588
165,Будневский ФАП,https://healthcare.by/instinfo.php?orgnum=27526,Буднев,ФАП,FAP,"213914, д. Буднев, Кличевский р-н, Могилевская обл.",,53.55226,29.380893
166,Будский ФАП,https://healthcare.by/instinfo.php?orgnum=15852,Буда,ФАП,FAP,"ул. Молодежная, 2, 247702, д. Смолинка, Калинковичский р-н, Гомельская обл.",,52.36548,29.451329
167,Будский ФАП,https://healthcare.by/instinfo.php?orgnum=15223,Буда,ФАП,FAP,"ул. Задорожная, 3, 211044, д. Жабыки, Дубровенский р-н, Витебская обл.",,54.658318,30.662438
168,Будской ФАП,https://healthcare.by/instinfo.php?orgnum=16072,Буда,ФАП,FAP,"213425, д. Буда, Горецкий р-н, Могилевская обл.",,54.177753,31.310815
169,Букчанский ФАП,https://healthcare.by/instinfo.php?orgnum=15947,Букча,ФАП,FAP,"ул. Ленинская, 60, 247856, д. Букча, Лельчицкий р-н, Гомельская обл.",,51.752312,27.675459
170,Булавковский ФАП,https://healthcare.by/instinfo.php?orgnum=15896,Булавки,ФАП,FAP,"247708, д. Булавки, Калинковичский р-н, Гомельская обл.",,52.254247,29.351518
171,Бурковский ФАП,https://healthcare.by/instinfo.php?orgnum=15631,Бурки,ФАП,FAP,"ул. Кооперативная, 29, 247633, д. Бурки, Брагинский р-н, Гомельская обл.",,51.806584,30.182899
172,Буссовский ФАП,https://healthcare.by/instinfo.php?orgnum=17809,Бусса,ФАП,FAP,"ул. Я. Коласа, 225812, д. 5/2, Бусса, Ивановский р-н, Брестская обл.",,52.32081,25.708382
173,Бухличский ФАП,https://healthcare.by/instinfo.php?orgnum=21572,Бухличи,ФАП,FAP,"ул. Советская, 7в, 225547, д. Бухличи, Столинский р-н, Брестская обл.",,51.796838,26.773532
174,Бучатинский ФАП,https://healthcare.by/instinfo.php?orgnum=15568,Бучатино,ФАП,FAP,"д. Бучатино, Копыльский р-н, Минская обл.",,52.913015,27.084421
175,Быковский ФАП,https://healthcare.by/instinfo.php?orgnum=17144,Большой Быков,ФАП,FAP,"ул. Центральная, 30, д. Большой Быков, Слуцкий р-н, Минская обл.",,52.885225,27.591413
176,Быстрицкий ФАП,https://healthcare.by/instinfo.php?orgnum=16837,Быстрица,ФАП,FAP,"ул. Центральная, 2А-1, 231221, д. Быстрица, Островецкий р-н, Гродненская обл.",,54.799257,25.874885
177,Быстромовский ФАП,https://healthcare.by/instinfo.php?orgnum=15101,Быстромовцы,ФАП,FAP,"ул. Центральная, 6, 211986, д. Быстромовцы, Браславский р-н, Витебская обл.",,55.763508,27.180227
178,Бытчанский ФАП,https://healthcare.by/instinfo.php?orgnum=16883,Бытча,ФАП,FAP,"ул. Молодежная, 10а, д. Бытча, Борисовский р-н, Минская обл.",,54.306665,28.405987
179,Быховщинский ФАП,https://healthcare.by/instinfo.php?orgnum=14933,Большая Быховщина,ФАП,FAP,"д. Большая Быховщина, Несвижский р-н, Минская обл.",,53.126738,26.632209
180,Вавуличский ФАП,https://healthcare.by/instinfo.php?orgnum=17752,Вавуличи,ФАП,FAP,"ул. Ленина, 24, 225846, д. Вавуличи, Дрогичинский р-н, Брестская обл.",,52.218867,25.35856
181,Валищенский ФАП,https://healthcare.by/instinfo.php?orgnum=17494,Валище,ФАП,FAP,"ул. Ленина, 105а, 225756, д. Валище, Пинский р-н, Брестская обл.",,52.399276,25.946678
182,Ванелевичский ФАП,https://healthcare.by/instinfo.php?orgnum=15574,Ванелевичи,ФАП,FAP,"д. Ванелевичи, Копыльский р-н, Минская обл.",,53.09185,27.157733
183,Василевский ФАП,https://healthcare.by/instinfo.php?orgnum=17955,Василевка 1-я,ФАП,FAP,"213660, д. Василевка 2-я, Хотимский р-н, Могилевская обл.",,53.487632,32.561737
184,Василевщинский ФАП,https://healthcare.by/instinfo.php?orgnum=17068,Василевщина,ФАП,FAP,"д. Василевщина, Минский р-н, Минская обл.",,53.753746,27.443047
185,Васильевский ФАП,https://healthcare.by/instinfo.php?orgnum=15702,Василево,ФАП,FAP,"ул. Первомайская, 3, 247039, д. Василево, Гомельский р-н, Гомельская обл.",,52.249715,30.636818
186,Васьковичский ФАП,https://healthcare.by/instinfo.php?orgnum=16627,Васьковичи,ФАП,FAP,"213260, д. Васьковичи, Славгородский р-н, Могилевская обл.",,53.401408,30.906331
187,Васьковичский ФАП,https://healthcare.by/instinfo.php?orgnum=16677,Васьковичи,ФАП,FAP,"213240, д. Васьковичи, Чаусский р-н, Могилевская обл.",,53.905382,30.754992
188,Ведреньский ФАП,https://healthcare.by/instinfo.php?orgnum=15475,Малая Ведрень,ФАП,FAP,"ул. Строительная, 15, 211154, д. Малая Ведрень, Чашникский р-н, Витебская обл.",,54.916356,29.3083
189,Ведричский ФАП,https://healthcare.by/instinfo.php?orgnum=16093,Ведрич,ФАП,FAP,"ул. Школьная, 10, 247551, д. Ведрич, Речицкий р-н, Гомельская обл.",,52.285687,29.872145
190,Вежский ФАП,https://healthcare.by/instinfo.php?orgnum=17145,Вежи,ФАП,FAP,"ул. Минская, 10, д. Вежа, Слуцкий р-н, Минская обл.",,53.168988,27.493865
191,Вейнянский ФАП,https://healthcare.by/instinfo.php?orgnum=16456,Вейно,ФАП,FAP,"ул. Советская, 4а, д. Вейно, Могилевский р-н, Могилевская обл.",,53.826588,30.385982
192,Велавский ФАП,https://healthcare.by/instinfo.php?orgnum=16027,Велавск,ФАП,FAP,"247935, д. Велавск, Петриковский р-н, Гомельская обл.",,52.29839,28.590402
193,Велетинский ФАП,https://healthcare.by/instinfo.php?orgnum=16224,Велитин,ФАП,FAP,"н. п. Велетин, 247606, д. Велетин, Хойникский р-н, Гомельская обл.",,51.875745,30.107171
194,Велико-Немковский ФАП,https://healthcare.by/instinfo.php?orgnum=15700,Великие Немки,ФАП,FAP,"247142, ул. Победы, 1а, д. Великие Немки, Ветковский р-н, Гомельская обл.",,52.870143,31.32906
195,Великоборский ФАП,https://healthcare.by/instinfo.php?orgnum=16594,Великий Бор,ФАП,FAP,"ул. Пролетарская, 1, 213753, д. Великий Бор, Осиповичский р-н, Могилевская обл.",,53.216847,28.161969
196,Великоганутский ФАП,https://healthcare.by/instinfo.php?orgnum=14857,Большая Ганута,ФАП,FAP,"ул. Школьная, 4, 223228, д. Большая Ганута, Червенский р-н, Минская обл.",,53.704637,28.738642
197,Великолукский ФАП,https://healthcare.by/instinfo.php?orgnum=17632,Великие Луки,ФАП,FAP,"ул. Советская, 21, 225351, д. Великие Луки, Барановичский р-н, Брестская обл.",,53.011242,26.045466
198,Великопольский ФАП,https://healthcare.by/instinfo.php?orgnum=14861,Великополье,ФАП,FAP,"д. Великополье, Червенский р-н, Минская обл.",,53.678015,28.567279
199,Великораевский ФАП,https://healthcare.by/instinfo.php?orgnum=15559,Великая Раевка,ФАП,FAP,"д. Великая Раевка, Копыльский р-н, Минская обл.",,53.125425,26.882579
200,Великосельский ФАП,https://healthcare.by/instinfo.php?orgnum=15493,Великое Село,ФАП,FAP,"211918, д. Великое Село, Шарковщинский р-н, Витебская обл.",,55.39885,27.673932
201,Великосельский ФАП,https://healthcare.by/instinfo.php?orgnum=17287,Великое Село,ФАП,FAP,"ул. Сельская, 16, д. Великое Село, Дзержинский р-н, Минская обл.",,53.744322,26.93328
202,Великосельский ФАП,https://healthcare.by/instinfo.php?orgnum=17036,Великое Село,ФАП,FAP,"231971, д. Великое Село, Свислочский р-н, Гродненская обл.",,53.05032,24.327312
203,Великосельский ФАП,https://healthcare.by/instinfo.php?orgnum=17411,Великое Село,ФАП,FAP,"ул. Победы, 9, 225165, д. Великое Село, Пружанский р-н, Брестская обл.",,52.633061,24.317278
204,Великосливский ФАП,https://healthcare.by/instinfo.php?orgnum=18223,Великая Слива,ФАП,FAP,"223618, д. Великая Слива, Слуцкий р-н, Минская обл.",,52.948955,27.630525
205,Велутский ФАП,https://healthcare.by/instinfo.php?orgnum=18102,Велута,ФАП,FAP,"ул. Школьная, 5, 225655, д. Велута, Лунинецкий р-н, Брестская обл.",,52.457291,26.791813
206,Вельямовичский ФАП,https://healthcare.by/instinfo.php?orgnum=12989,Вельямовичи,ФАП,FAP,"ул. Садовая, 1Б, 225036, д. Вельямовичи, Брестский р-н, Брестская обл.",,52.222139,23.452703
207,Вензовецкий ФАП,https://healthcare.by/instinfo.php?orgnum=16524,Вензовец,ФАП,FAP,"231488, д. Вензовец, Дятловский р-н, Гродненская обл.",,53.422861,25.332716
208,Вербовичский ФАП,https://healthcare.by/instinfo.php?orgnum=15987,Вербовичи,ФАП,FAP,"ул. Советская, 47а, 247802, д. Вербовичи, Наровлянский р-н, Гомельская обл.",,51.71571,29.518254
209,Верейцовский ФАП,https://healthcare.by/instinfo.php?orgnum=27516,Дражня,ФАП,FAP,"213716, д. Дражня, Осиповичский р-н, Могилевская обл.",,53.347602,28.499124
210,Вереньковский ФАП,https://healthcare.by/instinfo.php?orgnum=15341,Вереньки,ФАП,FAP,"Ширковский с/с, 211875, д. Вереньки, Поставский р-н, Витебская обл.",,54.993035,26.748964
211,Вересковский ФАП,https://healthcare.by/instinfo.php?orgnum=16879,Верески,ФАП,FAP,"д. Верески, Борисовский р-н, Минская обл.",,54.130182,28.504379
212,Вересницкий ФАП,https://healthcare.by/instinfo.php?orgnum=15803,Вересница,ФАП,FAP,"ул. Колхозная, 8, 247984, д. Вересница, Житковичский р-н, Гомельская обл.",,52.085918,27.644755
213,Веретеевский ФАП,https://healthcare.by/instinfo.php?orgnum=20893,Веретеи,ФАП,FAP,"ул. Школьная, 9, 211927, д. Веретеи, Шарковщинский р-н, Витебская обл.",,55.317922,27.807664
214,Вереченский ФАП,https://healthcare.by/instinfo.php?orgnum=11733,Веречье,ФАП,FAP,"д. Веречье, Городокский р-н, Витебская обл.",,55.584197,30.369956
215,Веркудский ФАП,https://healthcare.by/instinfo.php?orgnum=15455,Веркуды,ФАП,FAP,"ул. Школьная, 13, 211493, д. Веркуды, Ушачский р-н, Витебская обл.",,55.204521,28.924683
216,Верхне-Олбянский ФАП,https://healthcare.by/instinfo.php?orgnum=15826,Великая Олба,ФАП,FAP,"ул. Витебская, 6, 247225, д. Верхняя Олба, Жлобинский р-н, Гомельская обл.",,52.644428,30.193598
217,Верхнянский ФАП,https://healthcare.by/instinfo.php?orgnum=15203,Верхнее,ФАП,FAP,"ул. Центральная, 10, 211797, д. Верхнее, Глубокский р-н, Витебская обл.",,55.159974,27.502794
218,Верховский ФАП,https://healthcare.by/instinfo.php?orgnum=15132,Верховье,ФАП,FAP,"Верховский с/с, ул. Фрунзе, 25, д. Верховье, Бешенковичский р-н, Витебская обл.",,54.936771,29.414966
219,Верхолесский ФАП,https://healthcare.by/instinfo.php?orgnum=18060,Верхолесье,ФАП,FAP,"ул. Парковая, 5, 225863, д. Верхолесье, Кобринский р-н, Брестская обл.",,52.084607,24.305438
220,Верхутинский ФАП,https://healthcare.by/instinfo.php?orgnum=17005,Верхутино,ФАП,FAP,"222930, ул. Пролетарская, 57, д. Верхутино, Стародорожский р-н, Минская обл.",,52.969893,28.054108
221,Веселовский ФАП,https://healthcare.by/instinfo.php?orgnum=16886,Веселово,ФАП,FAP,"д. Веселово, Борисовский р-н, Минская обл.",,54.363649,28.342746
222,Весский ФАП,https://healthcare.by/instinfo.php?orgnum=17329,Веска,ФАП,FAP,"ул. Школьная, 1, 223742, д. Веска, Солигорский р-н, Минская обл.",,52.798598,27.265306
223,Ветковский ФАП,https://healthcare.by/instinfo.php?orgnum=16654,Ветка,ФАП,FAP,"213692, д. Ветка, Хотимский р-н, Могилевская обл.",,53.234605,32.412473
224,Ветчинский ФАП,https://healthcare.by/instinfo.php?orgnum=15783,Ветчин,ФАП,FAP,"ул. Первомайская, 247965, д. Ветчин, Житковичский р-н, Гомельская обл.",,52.442137,28.168418
225,Видевщинский ФАП,https://healthcare.by/instinfo.php?orgnum=15193,Видевщина,ФАП,FAP,"ул. Молодежная, 2, 222331, д. Видевщина, Молодеченский р-н, Минская обл.",,54.228748,27.003501
226,Видиборский ФАП,https://healthcare.by/instinfo.php?orgnum=21586,Видибор,ФАП,FAP,"ул. Советская, 58, 225536, д. Видибор, Столинский р-н, Брестская обл.",,51.986987,26.750176
227,Видокский ФАП,https://healthcare.by/instinfo.php?orgnum=15152,Видоки,ФАП,FAP,"211626, д. Видоки, Верхнедвинский р-н, Витебская обл.",,55.967718,28.005832
228,Видуйский ФАП,https://healthcare.by/instinfo.php?orgnum=16349,Видуйцы,ФАП,FAP,"213653, д. Видуйцы, Костюковичский р-н, Могилевская обл.",,53.227123,31.734299
229,Вильчанский ФАП,https://healthcare.by/instinfo.php?orgnum=16040,Вильча,ФАП,FAP,"213862, д. Вильча, Глусский р-н, Могилевская обл.",,52.9928,28.851452
230,Винцуковский ФАП,https://healthcare.by/instinfo.php?orgnum=16540,Венцуки,ФАП,FAP,"231384, д. Винцуки, Вороновский р-н, Гродненская обл.",,54.155367,25.503054
231,Вирковский ФАП,https://healthcare.by/instinfo.php?orgnum=16316,Вирков,ФАП,FAP,"213905, д. Вирков, Кличевский р-н, Могилевская обл.",,53.461097,29.046019
232,Витуничский ФАП,https://healthcare.by/instinfo.php?orgnum=15207,Витуничи,ФАП,FAP,"ул. Почтовая, 6, 211737, д. Витуничи, Докшицкий р-н, Витебская обл.",,54.770952,27.883131
233,Вичинский ФАП,https://healthcare.by/instinfo.php?orgnum=18101,Вичин,ФАП,FAP,"ул. Центральная, 122, 225652, д. Вичин, Лунинецкий р-н, Брестская обл.",,52.268204,26.938715
234,Вишневский ФАП,https://healthcare.by/instinfo.php?orgnum=15877,Вишневка,ФАП,FAP,"ул. Лесная, 12, 213831, д. Вишневка, Бобруйский р-н, Могилевская обл.",,53.003585,29.190854
235,Возгелянский ФАП,https://healthcare.by/instinfo.php?orgnum=15102,Возгеляны,ФАП,FAP,"д. Возгеляны, Браславский р-н, Витебская обл.",,55.557821,26.985894
236,Вознесенский ФАП,https://healthcare.by/instinfo.php?orgnum=27950,Вознесенский,ФАП,FAP,"ул. Луговая, 10, 247151, п. Вознесенский, Чечерский р-н, Гомельская обл.",,52.878481,30.957804
237,Войгановский ФАП,https://healthcare.by/instinfo.php?orgnum=17189,Войганы,ФАП,FAP,"д. Войганы, Воложинский р-н, Минская обл.",,54.165283,26.089672
238,Войневичский ФАП,https://healthcare.by/instinfo.php?orgnum=16556,Войневичи,ФАП,FAP,"231483, д. Войневичи, Дятловский р-н, Гродненская обл.",,53.441788,25.398086
239,Войниловский ФАП,https://healthcare.by/instinfo.php?orgnum=14848,Войнилово,ФАП,FAP,"ул. Садовая, д. 61, 223214, аг. Войнилово, Червенский р-н, Минская обл.",,53.764435,28.347129
240,Войниловский ФАП,https://healthcare.by/instinfo.php?orgnum=16674,Войнилы,ФАП,FAP,"ул. Окружная, 28а, 213211, д. Войнилы, Чаусский р-н, Могилевская обл.",,53.798778,30.738355
241,Войтковичский ФАП,https://healthcare.by/instinfo.php?orgnum=16499,Войтковичи,ФАП,FAP,"ул. Центральная, 5а, 231921, д. Войтковичи, Волковысский р-н, Гродненская обл.",,53.161101,24.580026
242,Войтовский ФАП,https://healthcare.by/instinfo.php?orgnum=15066,Войтово,ФАП,FAP,"д. Войтово, Витебский р-н, Витебская обл.",,55.217686,30.518052
243,Волковичский ФАП,https://healthcare.by/instinfo.php?orgnum=16672,Волковичи,ФАП,FAP,"ул. Центральная, 7, 213232, д. Волковичи, Чаусский р-н, Могилевская обл.",,53.877417,30.907148
244,Волковичский ФАП,https://healthcare.by/instinfo.php?orgnum=16745,Волковичи,ФАП,FAP,"231405, д. Волковичи, Новогрудский р-н, Гродненская обл.",,53.581784,25.955401
245,Волковский ФАП,https://healthcare.by/instinfo.php?orgnum=15342,Волки,ФАП,FAP,"211875, д. Волки, Поставский р-н, Витебская обл.",,55.080364,27.423823
246,Волковщинский ФАП,https://healthcare.by/instinfo.php?orgnum=15253,Волковщина,ФАП,FAP,"211933, д. Волковщина, Миорский р-н, Витебская обл.",,55.550198,27.421505
247,Волмянский ФАП,https://healthcare.by/instinfo.php?orgnum=15403,Волма,ФАП,FAP,"Китайско-Белорусский индустриальный парк «Великий камень», ул. Дружная, 1, 222231, д. Волма, Смолевичский р-н, Минская обл.",,53.896289,27.95709
248,Волосовичский ФАП,https://healthcare.by/instinfo.php?orgnum=16211,Волосовичи,ФАП,FAP,"213944, д. Волосовичи, Кировский р-н, Могилевская обл.",,53.201294,29.482537
249,Волосовичский ФАП,https://healthcare.by/instinfo.php?orgnum=16006,Волосовичи,ФАП,FAP,"ул. Песчаная, 28, 247304, д. Волосовичи, Октябрьский р-н, Гомельская обл.",,52.539002,29.118899
250,Волоськовнянский ФАП,https://healthcare.by/instinfo.php?orgnum=17900,Волоськовка,ФАП,FAP,"213654, д. Волоськовка, Костюковичский р-н, Могилевская обл.",,53.26685,32.015579
251,Волохвянский ФАП,https://healthcare.by/instinfo.php?orgnum=17633,Волохва,ФАП,FAP,"ул. Центральная, 23/2, 225352, д. Волохва, Барановичский р-н, Брестская обл.",,53.070776,25.993858
252,Волческий ФАП,https://healthcare.by/instinfo.php?orgnum=16410,Волчас,ФАП,FAP,"213512, д. Волчес, Кричевский р-н, Могилевская обл.",,53.749748,31.639194
253,Волынцевский ФАП,https://healthcare.by/instinfo.php?orgnum=15923,Волынцы,ФАП,FAP,"ул. Пионерская, 9, 247176, д. Волынцы, Кормянский р-н, Гомельская обл.",,53.200107,30.996656
254,Вольковский ФАП,https://healthcare.by/instinfo.php?orgnum=17828,Волька,ФАП,FAP,"д. Волька, Ивацевичский р-н, Брестская обл.",,52.783029,25.640398
255,Ворновский ФАП,https://healthcare.by/instinfo.php?orgnum=19302,Ворновка,ФАП,FAP,"ул. Школьная, 23, 247187, д. Ворновка, Кормянский р-н, Гомельская обл.",,53.022959,30.864775
256,Воробьевичский ФАП,https://healthcare.by/instinfo.php?orgnum=16767,Воробьевичи,ФАП,FAP,"ул. Центральная, 195, 231407, д. Большие Воробьевичи, Новогрудский р-н, Гродненская обл.",,53.709801,25.968947
257,Воровский ФАП,https://healthcare.by/instinfo.php?orgnum=16904,Воровское,ФАП,FAP,"ул. Школьная, 1, 222138, д. Дедиловичи, Борисовский р-н, Минская обл.",,54.576704,28.091298
258,Вороневский ФАП,https://healthcare.by/instinfo.php?orgnum=21587,Ворони,ФАП,FAP,"пер. Школьный, 3, 225521, д. Ворони, Столинский р-н, Брестская обл.",,51.829466,26.827809
259,Ворониловичский ФАП,https://healthcare.by/instinfo.php?orgnum=17383,Ворониловичи,ФАП,FAP,"ул. Советская, 4, 225153, д. Ворониловичи, Пружанский р-н, Брестская обл.",,52.80824,24.923479
260,Ворониновский ФАП,https://healthcare.by/instinfo.php?orgnum=15960,Воронино,ФАП,FAP,"213330, д. Воронино, Быховский р-н, Могилевская обл.",,53.530386,30.352645
261,Вороновский ФАП,https://healthcare.by/instinfo.php?orgnum=15067,Вороны,ФАП,FAP,"д. Вороны, Витебский р-н, Витебская обл.",,55.29964,30.445711
262,Воронский ФАП,https://healthcare.by/instinfo.php?orgnum=16838,Ворона,ФАП,FAP,"ул. Полоцкая, 3, 231221, д. Ворона, Островецкий р-н, Гродненская обл.",,54.637814,25.985135
263,Ворончанский ФАП,https://healthcare.by/instinfo.php?orgnum=16722,Воронча,ФАП,FAP,"231454, д. Воронча, Кореличский р-н, Гродненская обл.",,53.412713,26.059938
264,Воротынский ФАП,https://healthcare.by/instinfo.php?orgnum=15853,Воротын,ФАП,FAP,"ул. Комсомольская, 13, 247711, д. Воротын, Калинковичский р-н, Гомельская обл.",,52.331697,29.02701
265,Вороцевичский ФАП,https://healthcare.by/instinfo.php?orgnum=17818,Вороцевичи,ФАП,FAP,"ул. Пушкинская, 2г, 225808, д. Вороцевичи, Ивановский р-н, Брестская обл.",,52.107291,25.381467
266,Вощанский ФАП,https://healthcare.by/instinfo.php?orgnum=27384,Зятковичи,ФАП,FAP,"ул. Парковая 17 , 247179, д. Зятковичи, Кормянский р-н, Гомельская обл.",,53.201164,30.803546
267,Вульк-Орейский ФАП,https://healthcare.by/instinfo.php?orgnum=21588,Вулька-Орея,ФАП,FAP,"ул. Брестская, 7, 225536, д. Вулька-Орея, Столинский р-н, Брестская обл.",,51.995306,26.805791
268,Вулька-Городищенский ФАП,https://healthcare.by/instinfo.php?orgnum=23346,Вулька-Городище,ФАП,FAP,"ул. Центральная, 18, 225731, д. Вулька-Городище, Пинский р-н, Брестская обл.",,52.125347,26.611701
269,Вулька-Обровская амбулатория врача общей практики,https://healthcare.by/instinfo.php?orgnum=17879,Вулька-Обровская,Амбулатория,Outpatient Clinic,"д. Вулька-Обровская, Ивацевичский р-н, Брестская обл.",,52.577102,25.481971
270,Вулька-Радовецкий ФАП,https://healthcare.by/instinfo.php?orgnum=17753,Вулька-Радовецкая,ФАП,FAP,"ул. Жукова, 34/1, 225853, д. Вулька-Радовецкая, Дрогичинский р-н, Брестская обл.",,52.144932,25.044132
271,Вульковский ФАП,https://healthcare.by/instinfo.php?orgnum=18103,Вулька 1,ФАП,FAP,"ул. Новая, 23, 225652, д. Вулька 1, Лунинецкий р-н, Брестская обл.",,52.276883,26.703123
272,Вульковский ФАП,https://healthcare.by/instinfo.php?orgnum=17750,Вулька-Симоновичская,ФАП,FAP,"ул. 8 Марта, 1, 225837, д. Вулька-Симоновичская, Дрогичинский р-н, Брестская обл.",,52.138234,25.123758
273,Выверский ФАП,https://healthcare.by/instinfo.php?orgnum=15174,Вывери,ФАП,FAP,"ул. Мира. 3, 222330, д. Вывери, Молодеченский р-н, Минская обл.",,54.264596,27.114829
274,Выгонощанский ФАП,https://healthcare.by/instinfo.php?orgnum=17880,Выгонощи,ФАП,FAP,"д. Выгонощи, Ивацевичский р-н, Брестская обл.",,52.612643,25.918345
275,Выдрицкий ФАП,https://healthcare.by/instinfo.php?orgnum=15325,Выдрица,ФАП,FAP,"д. Выдрица, Крупский р-н, Минская обл.",,54.176889,29.050816
276,Высоковский ФАП,https://healthcare.by/instinfo.php?orgnum=15919,Высокая,ФАП,FAP,"ул. Строителей, 16, 247189, д. Высокая, Кормянский р-н, Гомельская обл.",,53.047289,30.856681
277,Высоковский ФАП,https://healthcare.by/instinfo.php?orgnum=16256,Высокое,ФАП,FAP,"213607, д. Высокое, Климовичский р-н, Могилевская обл.",,53.610957,32.089035
278,Высоковский ФАП,https://healthcare.by/instinfo.php?orgnum=16129,Высокое,ФАП,FAP,"247278, д. Высокое, Рогачевский р-н, Гомельская обл.",,52.977832,30.276279
279,Высокогородецкий ФАП,https://healthcare.by/instinfo.php?orgnum=15436,Высокий Городец,ФАП,FAP,"д. Высокий Городец, Толочинский р-н, Витебская обл.",,54.59979,29.546174
280,Высокогорский ФАП,https://healthcare.by/instinfo.php?orgnum=19040,Высокая Гора,ФАП,FAP,"ул. Центральная, 33, 223315, д. Высокая Гора, Березинский р-н, Минская обл.",,53.964702,29.229374
281,Высокский ФАП,https://healthcare.by/instinfo.php?orgnum=16784,Старое Высокое,ФАП,FAP,"ул. Железнодорожная, 91г, 213041, д. Старое Высокое, Шкловский р-н, Могилевская обл.",,54.126879,30.273522
282,Вышемирский ФАП,https://healthcare.by/instinfo.php?orgnum=16092,Вышемир,ФАП,FAP,"ул. Луговая, 5, 247565, д. Вышемир, Речицкий р-н, Гомельская обл.",,52.100703,30.389755
283,Вязовницкий ФАП,https://healthcare.by/instinfo.php?orgnum=16591,Вязовница,ФАП,FAP,"ул. Революционная, 1, 213713, д. Вязовница, Осиповичский р-н, Могилевская обл.",,53.452766,28.841589
284,Вязынковский ФАП,https://healthcare.by/instinfo.php?orgnum=15184,Вязынка,ФАП,FAP,"222322, д. Вязынка, Молодеченский р-н, Минская обл.",,54.099149,27.195013
285,Вязьевский ФАП,https://healthcare.by/instinfo.php?orgnum=16593,Вязье,ФАП,FAP,"ул. Центральная, 18, 213711, д. Вязье, Осиповичский р-н, Могилевская обл.",,53.383205,28.754812
286,Вятерский ФАП,https://healthcare.by/instinfo.php?orgnum=15476,Вятеро,ФАП,FAP,"ул. Центральная, 13, 211169, д. Вятеро, Чашникский р-н, Витебская обл.",,54.731623,29.397332
287,Габриелевский ФАП,https://healthcare.by/instinfo.php?orgnum=15121,Габриеловка,ФАП,FAP,"д. Габриелевка, Пуховичский р-н, Минская обл.",,53.416588,27.627902
288,Гавриленский ФАП,https://healthcare.by/instinfo.php?orgnum=16356,Гавриленка,ФАП,FAP,"213687, д. Гавриленка, Костюковичский р-н, Могилевская обл.",,53.109795,32.120386
289,Гадиловичский ФАП,https://healthcare.by/instinfo.php?orgnum=16131,Гадиловичи,ФАП,FAP,"247260, д. Гадиловичи, Рогачевский р-н, Гомельская обл.",,53.077928,30.271491
290,Гайненский ФАП,https://healthcare.by/instinfo.php?orgnum=16943,Гайна,ФАП,FAP,"223121, д. Гайна, Логойский р-н, Минская обл.",,54.360789,27.826618
291,Гайшинский ФАП,https://healthcare.by/instinfo.php?orgnum=16629,Гайшин,ФАП,FAP,"213265, д. Гайшин, Славгородский р-н, Могилевская обл.",,53.347118,30.995336
292,Галимщанский ФАП,https://healthcare.by/instinfo.php?orgnum=17272,Галимщина,ФАП,FAP,"ул. Тихая, 19, 231341, д. Галимщина, Гродненская обл.",,54.029899,25.72492
293,Ганусовский ФАП,https://healthcare.by/instinfo.php?orgnum=14920,Заозерье,ФАП,FAP,"д. Заозерье, Несвижский р-н, Минская обл.",,53.240404,26.591309
294,Ганцевичский ФАП,https://healthcare.by/instinfo.php?orgnum=17728,Ганцевичи,ФАП,FAP,"ул. Залинейная, 20, 225447, д. Ганцевичи, Ганцевичский р-н, Брестская обл.",,52.741162,26.455071
295,Гапоновичский ФАП,https://healthcare.by/instinfo.php?orgnum=15326,Гапоновичи,ФАП,FAP,"ул. Победы, 13, д. Гапоновичи, Крупский р-н, Минская обл.",,54.363045,29.106951
296,Гатецкий ФАП,https://healthcare.by/instinfo.php?orgnum=15545,Гатец,ФАП,FAP,"223311, д. Василевщина, Березинский р-н, Минская обл.",,53.908883,29.37703
297,Гатовщинский ФАП,https://healthcare.by/instinfo.php?orgnum=17593,Гатовщина,ФАП,FAP,"211812, д. Гатовщина, Глубокский р-н, Витебская обл.",,55.345089,28.349366
298,Гатский ФАП,https://healthcare.by/instinfo.php?orgnum=16015,Гать,ФАП,FAP,"ул. Октябрьская, 5а, 247301, д. Гать, Октябрьский р-н, Гомельская обл.",,52.601771,28.964479
299,Гвоздовский ФАП,https://healthcare.by/instinfo.php?orgnum=15301,Гвоздово,ФАП,FAP,"211659, д. Гвоздово, Полоцкий р-н, Витебская обл.",,55.56278,28.65827
300,Гвозницкий ФАП,https://healthcare.by/instinfo.php?orgnum=17446,Гвозница,ФАП,FAP,"ул. Ленина, 16, 225926, д. Гвозница, Малоритский р-н, Брестская обл.",,51.818021,23.909236
301,Гиженский ФАП,https://healthcare.by/instinfo.php?orgnum=16631,Гиженка,ФАП,FAP,"213242, д. Гиженка, Славгородский р-н, Могилевская обл.",,53.572979,31.051319
302,Гиновичский ФАП,https://healthcare.by/instinfo.php?orgnum=16605,Гиновичи,ФАП,FAP,"231724, д. Гиновичи, Гродненский р-н, Гродненская обл.",,53.749386,23.61705
303,Гирейшинский ФАП,https://healthcare.by/instinfo.php?orgnum=15103,Гирейши,ФАП,FAP,"211985, д. Гирейши, Браславский р-н, Витебская обл.",,55.531051,26.591543
304,Гирковский ФАП,https://healthcare.by/instinfo.php?orgnum=16542,Гирки,ФАП,FAP,"231395, д. Гирки, Вороновский р-н, Гродненская обл.",,54.004231,24.900294
305,Гирмантовский ФАП,https://healthcare.by/instinfo.php?orgnum=17634,Гирматовцы,ФАП,FAP,"ул. Первомайская, 5, 225326, д. Гирматовцы, Барановичский р-н, Брестская обл.",,53.276339,25.929062
306,Глазовский ФАП,https://healthcare.by/instinfo.php?orgnum=15644,Глазовка,ФАП,FAP,"247399, д. Глазовка, Буда-Кошелевский р-н, Гомельская обл.",,52.736478,30.568394
307,Гливинский ФАП,https://healthcare.by/instinfo.php?orgnum=16890,Гливин,ФАП,FAP,"ул. Центральная, 53 а, д. Гливин, Борисовский р-н, Минская обл.",,54.163375,28.601739
308,Глиницкий ФАП,https://healthcare.by/instinfo.php?orgnum=16283,Глиница,ФАП,FAP,"ул. Белобережская, 62 а, 247765, д. Глиница, Мозырский р-н, Гомельская обл.",,52.061639,28.619543
309,Глинковский ФАП,https://healthcare.by/instinfo.php?orgnum=21589,Глинка,ФАП,FAP,"ул. Советская, 84, 225526, д. Глинка, Столинский р-н, Брестская обл.",,51.892055,26.857938
310,Глиннослободской ФАП,https://healthcare.by/instinfo.php?orgnum=16085,Глинная Слобода,ФАП,FAP,"ул. Центральная, 91, 247510, д. Глинная Слобода, Речицкий р-н, Гомельская обл.",,52.169712,29.73402
311,Глиннянский ФАП,https://healthcare.by/instinfo.php?orgnum=17821,Глинна,ФАП,FAP,"ул. Советская, 1, 225844, д. Глинно, Ивановский р-н, Брестская обл.",,52.02073,25.42084
312,Глинский ФАП,https://healthcare.by/instinfo.php?orgnum=16741,Глинь,ФАП,FAP,"213530, д. Глинь, Чериковский р-н, Могилевская обл.",,53.648254,31.417409
313,Глинянский ФАП,https://healthcare.by/instinfo.php?orgnum=18062,Глинянки,ФАП,FAP,"ул. Центральная, 33, 225893, д. Глинянка, Кобринский р-н, Брестская обл.",,52.240644,24.23033
314,Глыбовский ФАП,https://healthcare.by/instinfo.php?orgnum=16095,Глыбов,ФАП,FAP,"ул. Советская, 45, 247522, д. Глыбов, Речицкий р-н, Гомельская обл.",,52.369307,30.393096
315,Глыбоцкий ФАП,https://healthcare.by/instinfo.php?orgnum=15703,Глыбоцкое,ФАП,FAP,"ул. Лесная, 13, 247046, д. Глыбоцкое, Гомельский р-н, Гомельская обл.",,52.062835,31.280344
316,Глядовичский ФАП,https://healthcare.by/instinfo.php?orgnum=16664,Глядовичи,ФАП,FAP,"ул. Молодежная, 16, 231607, д. Глядовичи, Мостовский р-н, Гродненская обл.",,53.42702,24.571492
317,Гневчицкий ФАП,https://healthcare.by/instinfo.php?orgnum=17812,Гневчицы,ФАП,FAP,"ул. Центральная, 6г/2, 225816, д. Гневчицы, Ивановский р-н, Брестская обл.",,52.03794,25.516439
318,Гнездиловский ФАП,https://healthcare.by/instinfo.php?orgnum=15220,Гнездилово,ФАП,FAP,"ул. Школьная, 7, д. Гнездилово, Докшицкий р-н, Витебская обл.",,54.819466,27.751546
319,Гозский ФАП,https://healthcare.by/instinfo.php?orgnum=16916,Гоза,ФАП,FAP,"ул. Центральная, 9Б, 231220, д. Гоза, Островецкий р-н, Гродненская обл.",,54.777713,26.037147
320,Головичпольский ФАП,https://healthcare.by/instinfo.php?orgnum=17114,Головичполье,ФАП,FAP,"ул. Социалистическая, 4, 231524, д. Головичполье, Щучинский р-н, Гродненская обл.",,53.724343,24.762761
321,Головковский ФАП,https://healthcare.by/instinfo.php?orgnum=16094,Головки,ФАП,FAP,"ул. Кооперативная, 2, 247544, д. Головки, Речицкий р-н, Гомельская обл.",,52.234506,29.97661
322,Головнинский ФАП,https://healthcare.by/instinfo.php?orgnum=18092,Головнинцы,ФАП,FAP,"ул. Интернациональная, 17, 225389, д. Головнинцы, Ляховичский р-н, Брестская обл.",,52.909067,26.111618
323,Головчицкий ФАП,https://healthcare.by/instinfo.php?orgnum=19128,Головчицы,ФАП,FAP,"ул. Советская, 88, 225856, д. Головчицы, Дрогичинский р-н, Брестская обл.",,52.081701,25.254338
324,Головчицкий ФАП,https://healthcare.by/instinfo.php?orgnum=15405,Головчицы,ФАП,FAP,"ул. Центральная, 37, 211464, д. Головчицы, Россонский р-н, Витебская обл.",,55.818447,28.606203
325,Головчицко-Будянский ФАП,https://healthcare.by/instinfo.php?orgnum=16399,Буда-Головчицы,ФАП,FAP,"247802, д. Буда-Головчицы, Наровлянский р-н, Гомельская обл.",,51.624116,29.508579
326,Голоцкий ФАП,https://healthcare.by/instinfo.php?orgnum=15124,Голоцк,ФАП,FAP,"д. Голоцк, Пуховичский р-н, Минская обл.",,53.70187,27.853496
327,Голошевский ФАП,https://healthcare.by/instinfo.php?orgnum=15443,Голошево,ФАП,FAP,"д. Голошево, Толочинский р-н, Витебская обл.",,54.411935,30.051871
328,Голубицкий ФАП,https://healthcare.by/instinfo.php?orgnum=16031,Голубица,ФАП,FAP,"ул. Советская, 88, 247949, д. Голубица, Петриковский р-н, Гомельская обл.",,52.105576,28.298557
329,Голубичский ФАП,https://healthcare.by/instinfo.php?orgnum=15197,Голубичи,ФАП,FAP,"211826, д. Голубичи, Глубокский р-н, Витебская обл.",,55.18174,27.890614
330,Голубовский ФАП,https://healthcare.by/instinfo.php?orgnum=15155,Голубово,ФАП,FAP,"211612, ул. Центральная, 6, д. Голубово, Верхнедвинский р-н, Витебская обл.",,55.917778,27.781173
331,Голынковский ФАП,https://healthcare.by/instinfo.php?orgnum=14962,Голынка,ФАП,FAP,"ул. Заречная, 18, 222653, д. Голынка, Клецкий р-н, Минская обл.",,52.928321,26.736504
332,Голынковский ФАП,https://healthcare.by/instinfo.php?orgnum=17713,Чернихово,ФАП,FAP,"ул. Комсомольская, 8, 225363, д. Чернихово, Барановичский р-н, Брестская обл.",,53.248438,26.285702
333,Гольцовский ФАП,https://healthcare.by/instinfo.php?orgnum=17461,Гольцы,ФАП,FAP,"225716, д. Гольцы, Пинский р-н, Брестская обл.",,52.090578,26.531068
334,Гомельский ФАП,https://healthcare.by/instinfo.php?orgnum=22868,Гомель,ФАП,FAP,"ул. Тябута, 14, 211415, д. Гомель, Полоцкий р-н, Витебская обл.",,55.313086,28.770748
335,Гончарский ФАП,https://healthcare.by/instinfo.php?orgnum=16799,Гончары,ФАП,FAP,"уль Советская, 3, 231304, д. Гончары, Лидский р-н, Гродненская обл.",,53.889815,25.302263
336,Горбахский ФАП,https://healthcare.by/instinfo.php?orgnum=17819,Горбаха,ФАП,FAP,"ул. Советская, 64, 225827, д. Горбаха, Ивановский р-н, Брестская обл.",,52.095557,25.361668
337,Горбацевичский ФАП,https://healthcare.by/instinfo.php?orgnum=15880,Горбацевичи,ФАП,FAP,"ул. Шоссейная, 18, 213842, д. Горбацевичи, Бобруйский р-н, Могилевская обл.",,53.05485,29.083371
338,Горбачевский ФАП,https://healthcare.by/instinfo.php?orgnum=15408,Горбачево,ФАП,FAP,"ул. Восточная, 2, 211477, д. Горбачево, Россонский р-н, Витебская обл.",,55.958673,29.050672
339,Горвальский ФАП,https://healthcare.by/instinfo.php?orgnum=16096,Горваль,ФАП,FAP,"ул. Бобруйская, 17, 247523, д. Горваль, Речицкий р-н, Гомельская обл.",,52.571678,30.184669
340,Гордуновский ФАП,https://healthcare.by/instinfo.php?orgnum=15743,Гордуны,ФАП,FAP,"ул. Гагарина, 16 А, 247075, д. Гордуны, Добрушский р-н, Гомельская обл.",,52.237032,31.328
341,Горелецкий ФАП,https://healthcare.by/instinfo.php?orgnum=15120,Горелец,ФАП,FAP,"д. Горелец, Пуховичский р-н, Минская обл.",,53.426252,27.926951
342,Горецковщинский ФАП,https://healthcare.by/instinfo.php?orgnum=16966,Горецковщина,ФАП,FAP,"ул. Зеленая, 39, 231122, д. Горецковщина, Ошмянский р-н, Гродненская обл.",,54.216541,26.125524
343,Горковский ФАП,https://healthcare.by/instinfo.php?orgnum=16536,Горка,ФАП,FAP,"231467, д. Горка, Дятловский р-н, Гродненская обл.",,53.28505,25.504204
344,Горковский ФАП,https://healthcare.by/instinfo.php?orgnum=16946,Горки,ФАП,FAP,"ул. Парковая, 12, 222695, аг. Горки, Столбцовский р-н, Минская обл.",,53.39409,26.631662
345,Горковский ФАП,https://healthcare.by/instinfo.php?orgnum=17007,Горки,ФАП,FAP,"222920, ул. Центральная, 2, аг. Горки, Стародорожский р-н, Минская обл.",,53.049719,28.048017
346,Горковский ФАП,https://healthcare.by/instinfo.php?orgnum=20511,Горки,ФАП,FAP,"ул. Центральная, 25, 223230, д. Горки, Червенский р-н, Минская обл.",,53.649829,28.622301
347,Горнорутский ФАП,https://healthcare.by/instinfo.php?orgnum=16727,Горная Рута,ФАП,FAP,"231433, д. Горная Рута, Кореличский р-н, Гродненская обл.",,53.58705,26.029557
348,Городецкий ФАП,https://healthcare.by/instinfo.php?orgnum=16787,Городец,ФАП,FAP,"ул. Молодежная, 17, 213011, д. Городец, Шкловский р-н, Могилевская обл.",,54.320405,30.114008
349,Городецкий ФАП,https://healthcare.by/instinfo.php?orgnum=16009,Городец,ФАП,FAP,"213325, д. Городец, Быховский р-н, Могилевская обл.",,53.545075,30.035684
350,Городецкий ФАП,https://healthcare.by/instinfo.php?orgnum=16182,Городец,ФАП,FAP,"213952, д. Городец, Кировский р-н, Могилевская обл.",,53.399712,29.493856
351,Городецкий ФАП,https://healthcare.by/instinfo.php?orgnum=16369,Городецкая,ФАП,FAP,"213577, д. Городецкая, Краснопольский р-н, Могилевская обл.",,53.336866,31.272295
352,Городеченский ФАП,https://healthcare.by/instinfo.php?orgnum=16740,Городечно,ФАП,FAP,"ул. Октябрьская, 10, 231244, д. Городечно, Новогрудский р-н, Гродненская обл.",,53.622403,25.872046
353,Городеченский ФАП,https://healthcare.by/instinfo.php?orgnum=17388,Городечно,ФАП,FAP,"ул. Молодежная, 2/1, 225172, д. Городечно, Пружанский р-н, Брестская обл.",,52.424413,24.308331
354,Городищенский ФАП,https://healthcare.by/instinfo.php?orgnum=17148,Городище,ФАП,FAP,"ул. Садовая, 41, д. Городище, Слуцкий р-н, Минская обл.",,53.102762,27.571048
355,Городищенский ФАП,https://healthcare.by/instinfo.php?orgnum=17612,Городище,ФАП,FAP,"ул. Школьная, 8А, 211714, д. Городище, Докшицкий р-н, Витебская обл.",,54.980797,27.37658
356,Городищенский ФАП,https://healthcare.by/instinfo.php?orgnum=17477,Городище,ФАП,FAP,"ул. Лунинецкая, 18, 225731, д. Городище, Пинский р-н, Брестская обл.",,52.174385,26.258438
357,Городокский ФАП,https://healthcare.by/instinfo.php?orgnum=26806,Городок,ФАП,FAP,"д. Городок, Узденский р-н, Минская обл.",,53.360055,27.207742
358,Гороховичский ФАП,https://healthcare.by/instinfo.php?orgnum=16023,Гороховичи,ФАП,FAP,"ул, Первомайская, 33, 247306, д. Гороховичи, Октябрьский р-н, Гомельская обл.",,52.541094,29.074432
359,Гороховский ФАП,https://healthcare.by/instinfo.php?orgnum=15881,Гороховка,ФАП,FAP,"213835, д. Гороховка, Бобруйский р-н, Могилевская обл.",,53.028218,28.935391
360,Горский ФАП,https://healthcare.by/instinfo.php?orgnum=15617,Горки,ФАП,FAP,"211182, д. Горки, Лепельский р-н, Витебская обл.",,54.851521,28.706527
361,Горский ФАП,https://healthcare.by/instinfo.php?orgnum=16368,Горы,ФАП,FAP,"213567, д. Горы, Краснопольский р-н, Могилевская обл.",,53.295476,31.407528
362,Гортольский ФАП,https://healthcare.by/instinfo.php?orgnum=17881,Гортоль,ФАП,FAP,"д. Гортоль, Ивацевичский р-н, Брестская обл.",,52.501405,25.909434
363,Горщевщинский ФАП,https://healthcare.by/instinfo.php?orgnum=15437,Горщевщина,ФАП,FAP,"д. Горщевщина, Толочинский р-н, Витебская обл.",,54.561009,29.969352
364,Гошевский ФАП,https://healthcare.by/instinfo.php?orgnum=17754,Гошево,ФАП,FAP,"ул. Кирова, 7, 225838, д. Гошево, Дрогичинский р-н, Брестская обл.",,52.286966,25.226687
365,Гощевский ФАП,https://healthcare.by/instinfo.php?orgnum=17829,Гощево,ФАП,FAP,"д. Гощево, Ивацевичский р-н, Брестская обл.",,52.690876,25.217291
366,Грабовский ФАП,https://healthcare.by/instinfo.php?orgnum=16046,Грабов,ФАП,FAP,"ул. Школьная, 1, 247934, д. Грабов, Петриковский р-н, Гомельская обл.",,52.275307,28.797859
367,Граничский ФАП,https://healthcare.by/instinfo.php?orgnum=15185,Граничи,ФАП,FAP,"ул. Минская, 83, 222333, аг. Граничи, Молодеченский р-н, Минская обл.",,54.226011,27.179391
368,Гребеневский ФАП,https://healthcare.by/instinfo.php?orgnum=15932,Гребени,ФАП,FAP,"ул. Ленина, 31, 247843, д. Гребени, Лельчицкий р-н, Гомельская обл.",,51.667021,28.413515
369,Гребенецкий ФАП,https://healthcare.by/instinfo.php?orgnum=14849,Гребенец,ФАП,FAP,"ул. Центральная, д. 4, 223235, д. Гребенец, Червенский р-н, Минская обл.",,53.622804,28.494318
370,"Грибановский ФАП, ФАП",https://healthcare.by/instinfo.php?orgnum=16443,Грибаны,ФАП,FAP,"213114, д. Грибаны, Могилевский р-н, Могилевская обл.",,54.003881,30.508278
371,Грибинский ФАП,https://healthcare.by/instinfo.php?orgnum=16419,Грибино,ФАП,FAP,"213190, д. Грибино, Круглянский р-н, Могилевская обл.",,54.270049,29.730867
372,Гривденский ФАП,https://healthcare.by/instinfo.php?orgnum=17865,Гривда,ФАП,FAP,"д. Гривда, Ивацевичский р-н, Брестская обл.",,52.833442,25.212862
373,Григоровичский ФАП,https://healthcare.by/instinfo.php?orgnum=15618,Григоровичи,ФАП,FAP,"211184, д. Григоровичи, Лепельский р-н, Витебская обл.",,54.792198,28.946881
374,Гринковский ФАП,https://healthcare.by/instinfo.php?orgnum=17034,Гринки,ФАП,FAP,"231962, д. Гринки, Свислочский р-н, Гродненская обл.",,52.950442,24.117241
375,Грицковичский ФАП,https://healthcare.by/instinfo.php?orgnum=14934,Грицкевичи,ФАП,FAP,"д. Грицкевичи, Несвижский р-н, Минская обл.",,53.142238,26.416659
376,Гричинский ФАП,https://healthcare.by/instinfo.php?orgnum=17299,Гричино,ФАП,FAP,"ул. Центральная, 2, д. Гричино, Дзержинский р-н, Минская обл.",,53.73921,27.385644
377,Гродиевский ФАП,https://healthcare.by/instinfo.php?orgnum=16969,Гроди,ФАП,FAP,"231118, д. Гроди, Ошмянский р-н, Гродненская обл.",,54.522913,25.884784
378,Гроновский ФАП,https://healthcare.by/instinfo.php?orgnum=17844,Гронов,ФАП,FAP,"213533, д. Гронов, Чериковский р-н, Могилевская обл.",,53.569338,31.460232
379,Груздовский ФАП,https://healthcare.by/instinfo.php?orgnum=15356,Груздово,ФАП,FAP,"211875, д. Груздово, Поставский р-н, Витебская обл.",,55.013642,27.01049
380,Грушевский ФАП,https://healthcare.by/instinfo.php?orgnum=15990,Грушевка,ФАП,FAP,"247802, д. Грушевка, Наровлянский р-н, Гомельская обл.",,51.675611,29.432609
381,Грушевский ФАП,https://healthcare.by/instinfo.php?orgnum=17978,Грушево,ФАП,FAP,"пер. Школьный, 5, 225885, д. Грушево, Кобринский р-н, Брестская обл.",,52.233872,24.720532
382,Грядовской ФАП,https://healthcare.by/instinfo.php?orgnum=15798,Гряда,ФАП,FAP,"ул. Центральная, 25-а, 247972, д. Гряда, Житковичский р-н, Гомельская обл.",,52.167873,27.632079
383,Губинский ФАП,https://healthcare.by/instinfo.php?orgnum=15616,Губино,ФАП,FAP,"211192, д. Губино, Лепельский р-н, Витебская обл.",,55.041431,28.950213
384,Губичская АВОП,https://healthcare.by/instinfo.php?orgnum=15646,Губичи,Амбулатория,Outpatient Clinic,"247398, д. Губичи, Буда-Кошелевский р-н, Гомельская обл.",,52.736478,30.568394
385,Гудогайский ФАП,https://healthcare.by/instinfo.php?orgnum=16816,Гудогай,ФАП,FAP,"ул. Юбилейная, 21, 231200, д. Гудогай, Островецкий р-н, Гродненская обл.",,54.593009,25.886518
386,Гудский ФАП,https://healthcare.by/instinfo.php?orgnum=16826,Гуды,ФАП,FAP,"ул. Центральная, д. 7, кв. 1, 231329, д. Гуды, Лидский р-н, Гродненская обл.",,53.716505,24.981546
387,Гулевичский ФАП,https://healthcare.by/instinfo.php?orgnum=15876,Гулевичи,ФАП,FAP,"ул. Советская, 78, 247720, д. Гулевичи, Калинковичский р-н, Гомельская обл.",,52.081956,29.373625
388,Гуркинский ФАП,https://healthcare.by/instinfo.php?orgnum=15591,Гурки,ФАП,FAP,"211582, д. Гурки, Городокский р-н, Витебская обл.",,55.78241,30.011501
389,Гурновский ФАП,https://healthcare.by/instinfo.php?orgnum=14950,Гурновщина,ФАП,FAP,"ул. Центральная, 22, 222641, д. Гурновщина, Клецкий р-н, Минская обл.",,53.051446,26.749691
390,Гусевицкий ФАП,https://healthcare.by/instinfo.php?orgnum=15657,Гусевица,ФАП,FAP,"247399, д. Гусевица, Буда-Кошелевский р-н, Гомельская обл.",,52.588631,30.67541
391,Гуслищанский ФАП,https://healthcare.by/instinfo.php?orgnum=17929,Гуслище,ФАП,FAP,"213133, д. Гуслище, Могилевский р-н, Могилевская обл.",,53.810673,30.135001
392,Гутовский ФАП,https://healthcare.by/instinfo.php?orgnum=17755,Гутово,ФАП,FAP,"ул. Комсомольская, 6, 225846, д. Гутово, Дрогичинский р-н, Брестская обл.",,52.185336,25.335132
393,Гутский ФАП,https://healthcare.by/instinfo.php?orgnum=17657,Гута,ФАП,FAP,"211875, д. Гута, Поставский р-н, Витебская обл.",,55.201947,27.201643
394,Дайлидский ФАП,https://healthcare.by/instinfo.php?orgnum=16827,Дайлидки,ФАП,FAP,"пер. Центральный, 4, 231201, д. Дайлидки, Островецкий р-н, Гродненская обл.",,54.752495,26.057324
395,Дайлидский ФАП,https://healthcare.by/instinfo.php?orgnum=16639,Дайлиды,ФАП,FAP,"ул. Центральная, 38, 231336, д. Дайлиды, Ивьевский р-н, Гродненская обл.",,53.963749,25.814761
396,Далекский ФАП,https://healthcare.by/instinfo.php?orgnum=17573,Далекие,ФАП,FAP,"ул. Центральная, 29, 211996, д. Далекие, Браславский р-н, Витебская обл.",,55.476786,26.864909
397,Далекский ФАП,https://healthcare.by/instinfo.php?orgnum=16815,Далекие,ФАП,FAP,"ул. Гагарина, 6, 231308, д. Далекие, Лидский р-н, Гродненская обл.",,53.818461,25.214497
398,Даниловичский ФАП,https://healthcare.by/instinfo.php?orgnum=15690,Даниловичи,ФАП,FAP,"ул. Молодежная, 41А, 247125, д. Даниловичи, Ветковский р-н, Гомельская обл.",,52.638811,30.967263
399,"Даньковичский ФАП, ФАП",https://healthcare.by/instinfo.php?orgnum=16790,Даньковичи,ФАП,FAP,"213010, д. Даньковичи, Шкловский р-н, Могилевская обл.",,54.176979,30.324178
400,Дворецкий ФАП,https://healthcare.by/instinfo.php?orgnum=17192,Дворец,ФАП,FAP,"д. Дворец, Воложинский р-н, Минская обл.",,54.080602,26.91694
401,Дворецкий ФАП,https://healthcare.by/instinfo.php?orgnum=15479,Дворец,ФАП,FAP,"ул. Центральная, 33Б, 211172, д. Дворец, Чашникский р-н, Витебская обл.",,54.622075,28.710444
402,Дворищанский ФАП,https://healthcare.by/instinfo.php?orgnum=16828,Дворище,ФАП,FAP,"ул. Звездная, д. 3, 231307, д. Дворище, Лидский р-н, Гродненская обл.",,53.805914,25.279113
403,Дворищанский ФАП,https://healthcare.by/instinfo.php?orgnum=16225,Дворище,ФАП,FAP,"247601, д. Дворище, Хойникский р-н, Гомельская обл.",,51.857904,29.916217
404,Дворищанский ФАП,https://healthcare.by/instinfo.php?orgnum=29377,Дворище,ФАП,FAP,"ул. Зеленая, 12, 211472, д. Дворище, Россонский р-н, Витебская обл.",,55.940099,28.907337
405,Дворищанский ФАП,https://healthcare.by/instinfo.php?orgnum=15838,Дворище,ФАП,FAP,"ул. Центральная, 46, 247237, д. Дворище, Жлобинский р-н, Гомельская обл.",,52.825378,29.552273
406,Дворищенский ФАП,https://healthcare.by/instinfo.php?orgnum=15104,Дворище,ФАП,FAP,"д. Дворище, Браславский р-н, Витебская обл.",,55.558962,26.721547
407,Дворновский ФАП,https://healthcare.by/instinfo.php?orgnum=15496,Дворново,ФАП,FAP,"211928, д. Дворново, Шарковщинский р-н, Витебская обл.",,55.361068,27.956111
408,Дворносельский ФАП,https://healthcare.by/instinfo.php?orgnum=15254,Дворное Село,ФАП,FAP,"211938, д. Дворное Село, Миорский р-н, Витебская обл.",,55.565585,27.652561
409,Дворчанский ФАП,https://healthcare.by/instinfo.php?orgnum=17658,Дворчаны,ФАП,FAP,"211875, д. Дворчаны, Поставский р-н, Витебская обл.",,55.077772,26.757614
410,Девятковский ФАП,https://healthcare.by/instinfo.php?orgnum=16504,Девятковцы,ФАП,FAP,"231905, д. Девятковцы, Волковысский р-н, Гродненская обл.",,53.215963,24.160333
411,Дедовский ФАП,https://healthcare.by/instinfo.php?orgnum=15778,Дедовка,ФАП,FAP,"ул. Советская, 92-а, 247970, д. Дедовка, Житковичский р-н, Гомельская обл.",,52.230579,27.660745
412,Делятичский ФАП,https://healthcare.by/instinfo.php?orgnum=16757,Делятичи,ФАП,FAP,"ул. Новогрудская, 4, 231423, д. Делятичи, Новогрудский р-н, Гродненская обл.",,53.782837,25.983886
413,Демеховский ФАП,https://healthcare.by/instinfo.php?orgnum=16086,Демехи,ФАП,FAP,"ул. Центральная, 73а, 247531, д. Демехи, Речицкий р-н, Гомельская обл.",,52.327817,30.205807
414,Демидовичский ФАП,https://healthcare.by/instinfo.php?orgnum=16340,Демидовичи,ФАП,FAP,"ул. Центральная, 20, 213647, д. Демидовичи, Костюковичский р-н, Могилевская обл.",,53.34665,32.2094
415,Демидовский ФАП,https://healthcare.by/instinfo.php?orgnum=15992,Демидов,ФАП,FAP,"ул. Чкалова, 8а, 247802, д. Демидов, Наровлянский р-н, Гомельская обл.",,51.658473,29.262665
416,Демидовщинский ФАП,https://healthcare.by/instinfo.php?orgnum=17980,Демидовщина,ФАП,FAP,"ул. Советская, 28, 225888, д. Демидовщина, Кобринский р-н, Брестская обл.",,52.270596,24.690106
417,Демьяновичский ФАП,https://healthcare.by/instinfo.php?orgnum=16541,Демьяновичи,ФАП,FAP,"д. Демьяновичи, Дятловский р-н, Гродненская обл.",,53.441788,25.398086
418,Денисовичский ФАП,https://healthcare.by/instinfo.php?orgnum=15328,Денисовичи,ФАП,FAP,"222424, д. Денисовичи, Крупский р-н, Минская обл.",,54.190894,29.221253
419,Деражичский ФАП,https://healthcare.by/instinfo.php?orgnum=15969,Деражичи,ФАП,FAP,"247113, ул. Михайлова, 21, д. Деражичи, Лоевский р-н, Гомельская обл.",,51.784521,30.624098
420,Дербинский ФАП,https://healthcare.by/instinfo.php?orgnum=16010,Дербин,ФАП,FAP,"ул. Садовая, 21, пом. 1, 247305, д. Дербин, Октябрьский р-н, Гомельская обл.",,52.538788,29.151265
421,Дербичский ФАП,https://healthcare.by/instinfo.php?orgnum=15665,Дербичи,ФАП,FAP,"247365, д. Дербичи, Буда-Кошелевский р-н, Гомельская обл.",,52.894358,30.671385
422,Деревнянский ФАП,https://healthcare.by/instinfo.php?orgnum=17756,Деревная,ФАП,FAP,"ул. Комсомольская, 19, 225852, д. Деревная, Дрогичинский р-н, Брестская обл.",,52.298076,24.902494
423,Деревянский ФАП,https://healthcare.by/instinfo.php?orgnum=17636,Деревная,ФАП,FAP,"ул. Зеленая, 7а, 225231, д. Деревная, Барановичский р-н, Брестская обл.",,53.077961,25.829376
424,Дерновичский ФАП,https://healthcare.by/instinfo.php?orgnum=15157,Дерновичи,ФАП,FAP,"211604, д. Дерновичи, Верхнедвинский р-н, Витебская обл.",,55.721762,28.440895
425,Дзержинский ФАП,https://healthcare.by/instinfo.php?orgnum=15950,Дзержинск,ФАП,FAP,"ул. Новая, 1, 247857, д. Дзержинск, Лельчицкий р-н, Гомельская обл.",,51.668076,27.541978
426,Дзержинский ФАП,https://healthcare.by/instinfo.php?orgnum=15993,Дзержинск,ФАП,FAP,"ул. Ленина, 20, 247802, д. Дзержинск, Наровлянский р-н, Гомельская обл.",,51.49777,29.346676
427,Димамерский ФАП,https://healthcare.by/instinfo.php?orgnum=15966,Димамерки,ФАП,FAP,"247107, ул. Комсамольская, 3, д. Димамерки, Лоевский р-н, Гомельская обл.",,51.855117,30.483143
428,Дмитриевский ФАП,https://healthcare.by/instinfo.php?orgnum=17892,Дмитриевка,ФАП,FAP,"213913, д. Дмитриевка, Кличевский р-н, Могилевская обл.",,53.533897,29.271936
429,Добейский ФАП,https://healthcare.by/instinfo.php?orgnum=15508,Добея,ФАП,FAP,"ул. Береговая, 9, 211278, д. Добея, Шумилинский р-н, Витебская обл.",,55.246995,29.558085
430,Добоснянский ФАП,https://healthcare.by/instinfo.php?orgnum=13655,Добосна,ФАП,FAP,"ул. Савченко, 37, д. Добосна, Кировский р-н, Могилевская обл.",,53.206779,29.661904
431,Добрейковский ФАП,https://healthcare.by/instinfo.php?orgnum=16779,Добрейка,ФАП,FAP,"ул. Молодежная, 6, 213040, д. Добрейка, Шкловский р-н, Могилевская обл.",,54.186274,30.281238
432,Добригорский ФАП,https://healthcare.by/instinfo.php?orgnum=15135,Добрыгоры,ФАП,FAP,"д. Добрыгоры, Бешенковичский р-н, Витебская обл.",,54.997709,29.493577
433,Добринский ФАП,https://healthcare.by/instinfo.php?orgnum=15511,Добрино,ФАП,FAP,"211278, д. Добрино, Шумилинский р-н, Витебская обл.",,55.324688,29.519242
434,Добринский ФАП,https://healthcare.by/instinfo.php?orgnum=15224,Добринь,ФАП,FAP,"ул. Центральная, 25, 211054, д. Добринь, Дубровенский р-н, Витебская обл.",,54.646698,31.015979
435,Добрицкий ФАП,https://healthcare.by/instinfo.php?orgnum=16189,Добрица,ФАП,FAP,"213948, д. Добрица, Кировский р-н, Могилевская обл.",,53.231295,29.754277
436,Добровский ФАП,https://healthcare.by/instinfo.php?orgnum=16991,Добрая,ФАП,FAP,"ул. Пионерская, 4, 213415, д. Добрая, Горецкий р-н, Могилевская обл.",,54.307016,30.934412
437,Добромысленский ФАП,https://healthcare.by/instinfo.php?orgnum=17833,Добромысель,ФАП,FAP,"д. Добромысель, Ивацевичский р-н, Брестская обл.",,52.824437,25.713889
438,Добропольский ФАП,https://healthcare.by/instinfo.php?orgnum=17637,Козловичи,ФАП,FAP,"225323, д. Козловичи, Барановичский р-н, Брестская обл.",,53.305222,25.800459
439,Доброславский ФАП,https://healthcare.by/instinfo.php?orgnum=17507,Доброславка,ФАП,FAP,"ул. Ленина, 106, 225742, д. Доброславка, Пинский р-н, Брестская обл.",,52.40138,26.244515
440,Довнарский ФАП,https://healthcare.by/instinfo.php?orgnum=16700,Довнары,ФАП,FAP,"ул. Довнарская, 1, 231362, д. Довнары, Ивьевский р-н, Гродненская обл.",,53.975692,26.085405
441,"Дойничевский ФАП, ФАП",https://healthcare.by/instinfo.php?orgnum=15884,Дойничево,ФАП,FAP,"213845, д. Дойничево, Бобруйский р-н, Могилевская обл.",,53.115498,28.820586
442,Докольский ФАП,https://healthcare.by/instinfo.php?orgnum=16047,Доколь,ФАП,FAP,"ул. Центральная, 1, 213863, д. Доколь, Глусский р-н, Могилевская обл.",,52.840356,28.54148
443,Докторовичский ФАП,https://healthcare.by/instinfo.php?orgnum=15575,Докторовичи,ФАП,FAP,"д. Докторовичи, Копыльский р-н, Минская обл.",,53.095273,27.210437
444,Докудовский ФАП,https://healthcare.by/instinfo.php?orgnum=16805,Докудово,ФАП,FAP,"ул. Молодежная, 5, 231303, д. Докудово, Лидский р-н, Гродненская обл.",,53.804787,25.502767
445,Докудовский ФАП,https://healthcare.by/instinfo.php?orgnum=15329,Докудово,ФАП,FAP,"ул. Полевая, 61А3, д. Докудово, Крупский р-н, Минская обл.",,54.327756,28.897482
446,Долголесский ФАП,https://healthcare.by/instinfo.php?orgnum=15710,Долголесье,ФАП,FAP,"ул. Центральная, 37а, 247031, п. Долголесье, Гомельский р-н, Гомельская обл.",,52.264864,30.713741
447,Долковский ФАП,https://healthcare.by/instinfo.php?orgnum=17380,Долки,ФАП,FAP,"225154, д. Долки, 74, Пружанский р-н, Брестская обл.",,52.839812,24.942901
448,Домановичский ФАП,https://healthcare.by/instinfo.php?orgnum=15893,Домановичи,ФАП,FAP,"ул. Школьная, 24, 247747, д. Домановичи, Калинковичский р-н, Гомельская обл.",,52.343148,29.39761
449,Домановичский ФАП,https://healthcare.by/instinfo.php?orgnum=17330,Домановичи,ФАП,FAP,"ул. Центральная, 1, 223737, д. Домановичи, Солигорский р-н, Минская обл.",,52.517569,27.774893
450,Домановский ФАП,https://healthcare.by/instinfo.php?orgnum=15886,Доманово,ФАП,FAP,"1а, 213831, д. Доманово, Бобруйский р-н, Могилевская обл.",,53.032042,29.259512
451,Домжерицкий ФАП,https://healthcare.by/instinfo.php?orgnum=15626,Домжирицы,ФАП,FAP,"211188, д. Домжерицы, Лепельский р-н, Витебская обл.",,54.741,28.320018
452,Домниковский ФАП,https://healthcare.by/instinfo.php?orgnum=17651,Домники,ФАП,FAP,"Горянский с/с, 211291, д. Домники, Полоцкий р-н, Витебская обл.",,55.50496,29.161569
453,Домовицкий ФАП,https://healthcare.by/instinfo.php?orgnum=14858,Домовицк,ФАП,FAP,"ул. Ленина, д. 10, 223224, д. Домовицк, Червенский р-н, Минская обл.",,53.818456,28.500256
454,Домутевский ФАП,https://healthcare.by/instinfo.php?orgnum=17659,Домути,ФАП,FAP,"д. Домути, Поставский р-н, Витебская обл.",,54.986051,26.287804
455,Доргишский ФАП,https://healthcare.by/instinfo.php?orgnum=16973,Доргишки,ФАП,FAP,"ул. Зеленая, 30, 231121, д. Доргишки, Ошмянский р-н, Гродненская обл.",,54.217884,25.964258
456,Доропеевичский ФАП,https://healthcare.by/instinfo.php?orgnum=17451,Доропеевичи,ФАП,FAP,"ул. Советская, 39, 225915, д. Доропеевичи, Малоритский р-н, Брестская обл.",,51.963043,24.313316
457,Доросинский ФАП,https://healthcare.by/instinfo.php?orgnum=15370,Дарасино,ФАП,FAP,"ул. Революционная, 6, 223832, д. Дарасино, Любанский р-н, Минская обл.",,52.897009,27.785521
458,Дорский ФАП,https://healthcare.by/instinfo.php?orgnum=17191,Доры,ФАП,FAP,"д. Доры, Воложинский р-н, Минская обл.",,54.014162,26.643205
459,Достоевская амбулатория врача обшей практики,https://healthcare.by/instinfo.php?orgnum=17803,Достоево,Амбулатория,Outpatient Clinic,"ул. Первомайская, 1а, 225806, д. Достоево, Ивановский р-н, Брестская обл.",,52.236745,25.668775
460,Дотишский ФАП,https://healthcare.by/instinfo.php?orgnum=16543,Дотишки,ФАП,FAP,"231393, д. Дотишки, Вороновский р-н, Гродненская обл.",,54.117856,24.995713
461,Драгунский ФАП,https://healthcare.by/instinfo.php?orgnum=16135,Драгунск,ФАП,FAP,"247266, д. Драгунск, Рогачевский р-н, Гомельская обл.",,53.277647,30.627386
462,Дражненский ФАП,https://healthcare.by/instinfo.php?orgnum=16589,Дражня,ФАП,FAP,"213750, д. Дражня, Осиповичский р-н, Могилевская обл.",,53.347602,28.499124
463,Дребский ФАП,https://healthcare.by/instinfo.php?orgnum=18105,Дребск,ФАП,FAP,"ул. Железнодорожная, 2д, 225661, д. Дребск, Лунинецкий р-н, Брестская обл.",,52.229994,27.019572
464,Дретуньский ФАП,https://healthcare.by/instinfo.php?orgnum=15302,Дретунь,ФАП,FAP,"Малоситнянский с/с, ул. Молодежная, 5, 211650, д. Дретунь, Полоцкий р-н, Витебская обл.",,55.69518,29.214641
465,Дригучский ФАП,https://healthcare.by/instinfo.php?orgnum=15262,Дригучи,ФАП,FAP,"211947, д. Дригучи, Миорский р-н, Витебская обл.",,55.67295,27.985486
466,Дрисвятский ФАП,https://healthcare.by/instinfo.php?orgnum=15107,Дрисвяты,ФАП,FAP,"211984, д. Дрисвяты, Браславский р-н, Витебская обл.",,55.590475,26.680215
467,Дроздовский ФАП,https://healthcare.by/instinfo.php?orgnum=16299,Дрозды,ФАП,FAP,"ул. Ленина, 1, 247768, д. Дрозды, Мозырский р-н, Гомельская обл.",,52.05191,29.187845
468,Друйский ФАП,https://healthcare.by/instinfo.php?orgnum=15105,Друйск,ФАП,FAP,"ул. Центральная, 23, 211978, д. Друйск, Браславский р-н, Витебская обл.",,55.724059,27.281009
469,Друцкий ФАП,https://healthcare.by/instinfo.php?orgnum=15438,Друцк,ФАП,FAP,"д. Друцк, Толочинский р-н, Витебская обл.",,54.343274,29.73924
470,Друцковщизненский ФАП,https://healthcare.by/instinfo.php?orgnum=14935,Друцковщизна,ФАП,FAP,"д. Друцковщизна, Несвижский р-н, Минская обл.",,53.230584,26.322848
471,Дубенецкий ФАП,https://healthcare.by/instinfo.php?orgnum=21577,Дубенец,ФАП,FAP,"ул. Юрчука, 36, 225545, д. Дубенец, Столинский р-н, Брестская обл.",,52.038683,26.976031
472,Дубинской ФАП,https://healthcare.by/instinfo.php?orgnum=17215,Дубина,ФАП,FAP,"д. Дубина, Воложинский р-н, Минская обл.",,54.170048,26.580044
473,Дублинский ФАП,https://healthcare.by/instinfo.php?orgnum=15632,Дублин,ФАП,FAP,"ул. Новая, 21а, 247627, д. Дублин, Брагинский р-н, Гомельская обл.",,51.735231,30.329648
474,Дубницкий ФАП,https://healthcare.by/instinfo.php?orgnum=15933,Дубницкое,ФАП,FAP,"ул. Меньшикова, 2, 247850, д. Дубницкое, Лельчицкий р-н, Гомельская обл.",,51.814346,28.222883
475,Дубницкий ФАП,https://healthcare.by/instinfo.php?orgnum=15281,Дубницы,ФАП,FAP,"ул. Центральная, 18, 211015, д. Дубницы, Оршанский р-н, Витебская обл.",,54.696579,30.250058
476,Дубновичский ФАП,https://healthcare.by/instinfo.php?orgnum=17482,Дубновичи,ФАП,FAP,"225733, д. Дубновичи, Пинский р-н, Брестская обл.",,52.281186,26.427807
477,Дубовицкий ФАП,https://healthcare.by/instinfo.php?orgnum=15917,Дубовица,ФАП,FAP,"ул. Гомельская, 1, 247185, д. Дубовица, Кормянский р-н, Гомельская обл.",,52.994529,30.737429
478,Дубоволожский ФАП,https://healthcare.by/instinfo.php?orgnum=15748,Дубовый Лог,ФАП,FAP,"ул. Юбилейная, 67, 247050, д. Дубовый Лог, Добрушский р-н, Гомельская обл.",,52.530801,31.361354
479,Дубовский ФАП,https://healthcare.by/instinfo.php?orgnum=6317,Дубы,ФАП,FAP,"220013, д. Дубы, Крупский р-н, Минская обл.",,54.505304,29.174029
480,Дубовской ФАП,https://healthcare.by/instinfo.php?orgnum=27906,Дубовцы,ФАП,FAP,"ул. Центральная, 18, 231913, д. Дубовцы, Волковысский р-н, Гродненская обл.",,53.257925,24.441075
481,Дубойский ФАП,https://healthcare.by/instinfo.php?orgnum=21593,Дубои,ФАП,FAP,"ул. Первомайская, 33, 225535, д. Дубои, Столинский р-н, Брестская обл.",,51.955085,26.553903
482,Дубокский ФАП,https://healthcare.by/instinfo.php?orgnum=17588,Дубок,ФАП,FAP,"ул. Новая, 3, 225022, д. Дубок, Брестский р-н, Брестская обл.",,51.665987,23.702615
483,Дубровицкий ФАП,https://healthcare.by/instinfo.php?orgnum=16250,Дубровица,ФАП,FAP,"247604, д. Дубровица, Хойникский р-н, Гомельская обл.",,52.0498,30.104512
484,Дубровский ФАП,https://healthcare.by/instinfo.php?orgnum=5002,Дуброва,ФАП,FAP,"пер. Южный, 2, 247963, д. Дуброва, Житковичский р-н, Гомельская обл.",,52.164835,27.69948
485,Дубровский ФАП,https://healthcare.by/instinfo.php?orgnum=16907,Дуброва,ФАП,FAP,"ул. Советская, 20, 247537, д. Дуброво, Речицкий р-н, Гомельская обл.",,52.374294,30.383915
486,Дубровский ФАП,https://healthcare.by/instinfo.php?orgnum=20818,Дуброва,ФАП,FAP,"ул. Юбилейная, 3, 247850, д. Дуброва, Лельчицкий р-н, Гомельская обл.",,51.788376,28.32089
487,Дубровский ФАП,https://healthcare.by/instinfo.php?orgnum=15330,Дубровка,ФАП,FAP,"ул. Портянко А. А., 67а, д. Дубровка, Крупский р-н, Минская обл.",,54.52493,29.099702
488,Дубровский ФАП,https://healthcare.by/instinfo.php?orgnum=15106,Дубровка,ФАП,FAP,"д. Дубровка, Браславский р-н, Витебская обл.",,55.353432,26.935382
489,Дубровский ФАП,https://healthcare.by/instinfo.php?orgnum=15744,Дубровка,ФАП,FAP,"ул. Советская, 5, 247077, д. Дубровка, Добрушский р-н, Гомельская обл.",,52.176324,31.545626
490,Дубровский ФАП,https://healthcare.by/instinfo.php?orgnum=16007,Дуброво,ФАП,FAP,"213146, д. Дуброво, Быховский р-н, Могилевская обл.",,53.470575,30.259077
491,Дубровский ФАП,https://healthcare.by/instinfo.php?orgnum=15318,Дуброво,ФАП,FAP,"ул. Ф. Скорины, 23А, 222324, д. Дуброво, Молодеченский р-н, Минская обл.",,54.090236,27.098741
492,Дубровский ФАП,https://healthcare.by/instinfo.php?orgnum=16341,Дубровое,ФАП,FAP,"213864, д. Дуброво, Глусский р-н, Могилевская обл.",,52.927767,28.687357
493,Дубровский ФАП,https://healthcare.by/instinfo.php?orgnum=15159,Дубровы,ФАП,FAP,"Освейский с/с, 211454, д. Дубровы, Верхнедвинский р-н, Витебская обл.",,55.995106,28.238092
494,Дудичский ФАП,https://healthcare.by/instinfo.php?orgnum=15860,Дудичи,ФАП,FAP,"ул. Советская, 22, 247701, д. Дудичи, Калинковичский р-н, Гомельская обл.",,52.3575,29.565919
495,Дужевский ФАП,https://healthcare.by/instinfo.php?orgnum=16711,Дужевка,ФАП,FAP,"ул. Центральная, 18, 213224, д. Дужевка, Чаусский р-н, Могилевская обл.",,53.657369,30.936038
496,Дулебский ФАП,https://healthcare.by/instinfo.php?orgnum=15542,Дулебы,ФАП,FAP,"д. Дулебы, Березинский р-н, Минская обл.",,53.755567,29.318738
497,Дулевской ФАП,https://healthcare.by/instinfo.php?orgnum=26083,Дулевцы,ФАП,FAP,"231912, д. Дулевцы, д. 46, Волковысский р-н, Гродненская обл.",,53.29447,24.270601
498,Дулиновский ФАП,https://healthcare.by/instinfo.php?orgnum=15497,Дулино,ФАП,FAP,"211921, д. Дулино, Шарковщинский р-н, Витебская обл.",,55.309412,27.402596
499,Дунайковский ФАП,https://healthcare.by/instinfo.php?orgnum=16022,Дунаек,ФАП,FAP,"213326, д. Дунаек, Быховский р-н, Могилевская обл.",,53.435791,29.971607
500,Дунайчицкий ФАП,https://healthcare.by/instinfo.php?orgnum=14965,Дунайчицы,ФАП,FAP,"ул. Советская, 34, 222531, д. Дунайчицы, Клецкий р-н, Минская обл.",,53.005146,26.604586
501,Дуравичский ФАП,https://healthcare.by/instinfo.php?orgnum=15647,Дуравичи,ФАП,FAP,"247386, д. Дуравичи, Буда-Кошелевский р-н, Гомельская обл.",,52.69999,30.714064
502,Дусаевщинский ФАП,https://healthcare.by/instinfo.php?orgnum=15556,Дусаевщина,ФАП,FAP,"д. Дусаевщина, Копыльский р-н, Минская обл.",,53.208122,27.122411
503,Душевский ФАП,https://healthcare.by/instinfo.php?orgnum=15567,Душево,ФАП,FAP,"д. Душево, Копыльский р-н, Минская обл.",,53.195916,26.989721
504,Дымановский ФАП,https://healthcare.by/instinfo.php?orgnum=15068,Дыманово,ФАП,FAP,"п/о Дыманово, д. Дыманово, Витебский р-н, Витебская обл.",http://vgcp.by,55.090119,30.295189
505,Дяговичский ФАП,https://healthcare.by/instinfo.php?orgnum=16401,Дяговичи,ФАП,FAP,"ул. Центральная, 14, 213516, д. Дяговичи, Кричевский р-н, Могилевская обл.",,53.771168,31.806631
506,Дятельский ФАП,https://healthcare.by/instinfo.php?orgnum=17618,Дятель,ФАП,FAP,"ул. Озерная, 1, 211051, д. Дятель, Дубровенский р-н, Витебская обл.",,54.42015,30.860166
507,Езерская амбулатория врача общей практики,https://healthcare.by/instinfo.php?orgnum=16752,Езеры,Амбулатория,Outpatient Clinic,"ул. Приозерная, 1, 213546, д. Езеры, Чериковский р-н, Могилевская обл.",,53.5643,31.250511
508,Еловецкий ФАП,https://healthcare.by/instinfo.php?orgnum=16658,Еловец,ФАП,FAP,"213665, д. Еловец, Хотимский р-н, Могилевская обл.",,53.449811,32.651084
509,Ельковщинский ФАП,https://healthcare.by/instinfo.php?orgnum=16422,Ельковщина,ФАП,FAP,"213192, д. Ельковщина, Круглянский р-н, Могилевская обл.",,54.246692,29.920457
510,Ельнянский ФАП,https://healthcare.by/instinfo.php?orgnum=15108,Заречье,ФАП,FAP,"211981, д. Ельно, Браславский р-н, Витебская обл.",,55.64601,26.951722
511,Емельяновский ФАП,https://healthcare.by/instinfo.php?orgnum=15252,Емельяново,ФАП,FAP,"211218, д. Емельяново, Лиозненский р-н, Витебская обл.",,55.188555,30.777234
512,Еремеевский ФАП,https://healthcare.by/instinfo.php?orgnum=15225,Еремеевщина,ФАП,FAP,"ул. Центральная, 1, 211058, д. Еремеевщина, Дубровенский р-н, Витебская обл.",,54.555198,30.778851
513,Еремичский ФАП,https://healthcare.by/instinfo.php?orgnum=16730,Еремичи,ФАП,FAP,"231442, д. Еремичи, Кореличский р-н, Гродненская обл.",,53.498485,26.237984
514,Ермоловичский ФАП,https://healthcare.by/instinfo.php?orgnum=15829,Ермоловичи,ФАП,FAP,"213167, д. Ермоловичи, Белыничский р-н, Могилевская обл.",,53.979288,30.055348
515,Жабинский ФАП,https://healthcare.by/instinfo.php?orgnum=17332,Жабин,ФАП,FAP,"ул. Победы, 6, 223712, д. Жабин, Солигорский р-н, Минская обл.",,52.844011,27.511696
516,Жарский ФАП,https://healthcare.by/instinfo.php?orgnum=15457,Жары,ФАП,FAP,"Жарский с/с, ул. Центральная, 18, 211482, д. Жары, Ушачский р-н, Витебская обл.",,55.078767,28.651973
517,Жаховичский ФАП,https://healthcare.by/instinfo.php?orgnum=16280,Жаховичи,ФАП,FAP,"ул. Советская, 52, 247762, д. Жаховичи, Мозырский р-н, Гомельская обл.",,52.110543,28.951318
518,Жгуно-Будский ФАП,https://healthcare.by/instinfo.php?orgnum=15739,Жгуно-Буда,ФАП,FAP,"ул. Советская, 70а, 247061, д. Жгуно-Буда, Добрушский р-н, Гомельская обл.",,52.354041,31.256781
519,Жгунский ФАП,https://healthcare.by/instinfo.php?orgnum=15738,Жгуны,ФАП,FAP,"ул. Школьная, 11а, 247062, г. Добруш, Гомельская обл.",,52.434121,31.304078
520,"Желивский ФАП, ФАП",https://healthcare.by/instinfo.php?orgnum=17830,Желивье,ФАП,FAP,"213202, д. Желивье, Чаусский р-н, Могилевская обл.",,53.899679,31.052819
521,Жемыславльский ФАП,https://healthcare.by/instinfo.php?orgnum=16680,Жемыславль,ФАП,FAP,"ул. Школьная, 21, 231341, д. Жемыславль, Ивьевский р-н, Гродненская обл.",,54.127207,25.763009
522,Жеребковичский ФАП,https://healthcare.by/instinfo.php?orgnum=18085,Жеребковичи,ФАП,FAP,"ул. Октябрьская, 10, 225390, д. Жеребковичи, Ляховичский р-н, Брестская обл.",,53.076187,26.449555
523,Жестиновский ФАП,https://healthcare.by/instinfo.php?orgnum=16928,Жестинное,ФАП,FAP,"д. Жестиное, Логойский р-н, Минская обл.",,54.520086,27.830957
524,Жигулевский ФАП,https://healthcare.by/instinfo.php?orgnum=15169,Жигули,ФАП,FAP,"211630, д. Жигули, Верхнедвинский р-н, Витебская обл.",,55.740107,27.984893
525,Жилинбродский ФАП,https://healthcare.by/instinfo.php?orgnum=17149,Жилин Брод,ФАП,FAP,"ул. Заводская, 2, 223645, д. Жилин Брод, Слуцкий р-н, Минская обл.",,53.20659,27.767159
526,Жилиховский ФАП,https://healthcare.by/instinfo.php?orgnum=15569,Жилихово,ФАП,FAP,"д. Жилихово, Копыльский р-н, Минская обл.",,52.956301,27.071028
527,Житьковский ФАП,https://healthcare.by/instinfo.php?orgnum=16895,Житьково,ФАП,FAP,"ул. Школьная, 222140, д. Житьково, Борисовский р-н, Минская обл.",,54.335537,28.574044
528,Жмурнянский ФАП,https://healthcare.by/instinfo.php?orgnum=15936,Жмурное,ФАП,FAP,"247843, д. Жмурное, Лельчицкий р-н, Гомельская обл.",,51.718551,28.350588
529,Жмуровский ФАП,https://healthcare.by/instinfo.php?orgnum=16087,Жмуровка,ФАП,FAP,"ул. Советская, 41а, 247510, д. Жмуровка, Речицкий р-н, Гомельская обл.",,52.334674,30.455251
530,Жолкинский ФАП,https://healthcare.by/instinfo.php?orgnum=17489,Жолкино,ФАП,FAP,"225713, д. Жолкино, Пинский р-н, Брестская обл.",,51.906565,26.33122
531,Жорновский ФАП,https://healthcare.by/instinfo.php?orgnum=16596,Жорновка,ФАП,FAP,"ул. Октябрьская, 11, 213722, д. Жорновка, Осиповичский р-н, Могилевская обл.",,53.294987,28.643978
532,Жоровский ФАП,https://healthcare.by/instinfo.php?orgnum=15127,Энергия,ФАП,FAP,"222829, д. Энергия, Пуховичский р-н, Минская обл.",,53.482359,28.029431
533,Жортайский ФАП,https://healthcare.by/instinfo.php?orgnum=16901,Жортай,ФАП,FAP,"ул. Школьная, 4, д. Жортай, Борисовский р-н, Минская обл.",,54.567425,28.569714
534,Жукевичский ФАП,https://healthcare.by/instinfo.php?orgnum=16619,Жукевичи,ФАП,FAP,"231702, д. Жукевичи, Гродненский р-н, Гродненская обл.",,53.592977,23.961312
535,Жукневский ФАП,https://healthcare.by/instinfo.php?orgnum=15439,Жукнево,ФАП,FAP,"д. Жукнево, Толочинский р-н, Витебская обл.",,54.376237,30.001359
536,Жуковщинский ФАП,https://healthcare.by/instinfo.php?orgnum=17710,Жуковщина,ФАП,FAP,"211900, д. Жуковщина, Шарковщинский р-н, Витебская обл.",,55.302581,27.13479
537,Жуковщинский ФАП,https://healthcare.by/instinfo.php?orgnum=16526,Жуковщина,ФАП,FAP,"231464, д. Жуковщина, Дятловский р-н, Гродненская обл.",,53.441788,25.398086
538,Жупранская амбулатория,https://healthcare.by/instinfo.php?orgnum=16974,Жупраны,Амбулатория,Outpatient Clinic,"ул. Юрия Гагарина, 1, 231102, д. Жупраны, Ошмянский р-н, Гродненская обл.",,54.47401,26.090732
539,Забельский ФАП,https://healthcare.by/instinfo.php?orgnum=11668,Забелье,ФАП,FAP,"д. Забелье, Бешенковичский р-н, Витебская обл.",,55.035751,29.727768
540,Заболотский ФАП,https://healthcare.by/instinfo.php?orgnum=15373,Заболоть,ФАП,FAP,"ул. Ленина, 3, 223840, д. Заболоть, Любанский р-н, Минская обл.",,52.797281,27.874391
541,Заболотский ФАП,https://healthcare.by/instinfo.php?orgnum=17723,Заболотье,ФАП,FAP,"ул. Школьная, 3, 225337, д. Заболотье, Барановичский р-н, Брестская обл.",,53.184127,25.840102
542,Заболотский ФАП,https://healthcare.by/instinfo.php?orgnum=21268,Заболотье,ФАП,FAP,"ул. Октябрьская, 33, 247330, д. Заболотье, Октябрьский р-н, Гомельская обл.",,52.658365,28.566354
543,Заболотский ФАП,https://healthcare.by/instinfo.php?orgnum=17276,Заболотье,ФАП,FAP,"ул. Новая, 1, д. Заболотье, Вилейский р-н, Минская обл.",,54.529465,27.407797
544,Заболотский ФАП,https://healthcare.by/instinfo.php?orgnum=16145,Заболотье,ФАП,FAP,"247281, д. Заболотье, Рогачевский р-н, Гомельская обл.",,53.116633,30.223926
545,Заболотский ФАП,https://healthcare.by/instinfo.php?orgnum=16894,Заболотье,ФАП,FAP,"ул. Молодежная, 15а, 222132, д. Заболотье, Борисовский р-н, Минская обл.",,54.363942,28.378283
546,Заболотский ФАП,https://healthcare.by/instinfo.php?orgnum=16313,Заболотье,ФАП,FAP,"ул. Почтовая, 8, 247780, д. Заболотье, Мозырский р-н, Гомельская обл.",,51.84453,28.856232
547,Заболотский ФАП,https://healthcare.by/instinfo.php?orgnum=17294,Заболотье,ФАП,FAP,"ул. Мира, 7, аг. Заболотье, Дзержинский р-н, Минская обл.",,53.674015,27.267552
548,Заболотский ФАП,https://healthcare.by/instinfo.php?orgnum=16573,Заболотье,ФАП,FAP,"213464, д. Заболотье, Мстиславский р-н, Могилевская обл.",,54.003633,31.546614
549,Заболотьевский ФАП,https://healthcare.by/instinfo.php?orgnum=26811,Заболотье,ФАП,FAP,"ул. Партизанская, 53, 225005, д. Заболотье, Брестский р-н, Брестская обл.",,52.05737,23.855212
550,Заболотьевский ФАП,https://healthcare.by/instinfo.php?orgnum=17640,Заболотье,ФАП,FAP,"211931, д. Заболотье, Миорский р-н, Витебская обл.",,55.675179,27.448024
551,Заболоцкий ФАП,https://healthcare.by/instinfo.php?orgnum=15441,Заболотье,ФАП,FAP,"ул. Партизанская, 53, 225005, д. Заболотье, Брестский р-н, Брестская обл.",,52.05737,23.855212
552,Заборовский ФАП,https://healthcare.by/instinfo.php?orgnum=17498,Заборовцы,ФАП,FAP,"ул. Центральная, 22, 225720, д. Заборовцы, Пинский р-н, Брестская обл.",,52.397539,26.106569
553,Заборский ФАП,https://healthcare.by/instinfo.php?orgnum=15407,Заборье,ФАП,FAP,"ул. Интернациональная, 17, 211475, д. Заборье, Россонский р-н, Витебская обл.",,55.907839,29.318756
554,Завершский ФАП,https://healthcare.by/instinfo.php?orgnum=17758,Завершье,ФАП,FAP,"ул. Димитрова, 2, 225847, д. Завершье, Дрогичинский р-н, Брестская обл.",,52.282068,25.375925
555,Завечельский ФАП,https://healthcare.by/instinfo.php?orgnum=15458,Завечелье,ФАП,FAP,"Сорочинский с/с, ул. Центральная, 21, 211498, д. Завечелье, Ушачский р-н, Витебская обл.",,55.130024,28.744607
556,Завидчицкий ФАП,https://healthcare.by/instinfo.php?orgnum=17465,Завидчицы,ФАП,FAP,"ул. Дмитрия Лапина, 72, 225746, д. Завидчицы, Пинский р-н, Брестская обл.",,52.056462,26.049778
557,Завишинский ФАП,https://healthcare.by/instinfo.php?orgnum=16936,Завишино,ФАП,FAP,"223126, д. Завишино, Логойский р-н, Минская обл.",,54.477907,27.66352
558,Завойтянский ФАП,https://healthcare.by/instinfo.php?orgnum=15995,Завойть,ФАП,FAP,"ул. Мира, 2, 247802, д. Завойть, Наровлянский р-н, Гомельская обл.",,51.797283,29.380982
559,Завшицкий ФАП,https://healthcare.by/instinfo.php?orgnum=17355,Завшицы,ФАП,FAP,"ул. Южная, 1, 223743, д. Завшицы, Солигорский р-н, Минская обл.",,52.832201,27.337207
560,Загальский ФАП,https://healthcare.by/instinfo.php?orgnum=15374,Загалье,ФАП,FAP,"ул. Школьная, 14, 223823, д. Загалье, Любанский р-н, Минская обл.",,52.668934,28.355915
561,Загальский ФАП,https://healthcare.by/instinfo.php?orgnum=16227,Кливы,ФАП,FAP,"247615, д. Кливы, Хойникский р-н, Гомельская обл.",,51.907615,29.827131
562,Загатский ФАП,https://healthcare.by/instinfo.php?orgnum=17895,Милое,ФАП,FAP,"213902, пос. Милое, Кличевский р-н, Могилевская обл.",,53.662908,29.661445
563,Загоринский ФАП,https://healthcare.by/instinfo.php?orgnum=16282,Загорины,ФАП,FAP,"ул. Колхозная, 16, 247770, д. Загорины, Мозырский р-н, Гомельская обл.",,52.105134,29.145938
564,Загорновский ФАП,https://healthcare.by/instinfo.php?orgnum=14972,Загорная,ФАП,FAP,"ул. Космонавтов, 74, 222648, д. Загорнае, Клецкий р-н, Минская обл.",,53.005455,26.797787
565,Загорянковский ФАП,https://healthcare.by/instinfo.php?orgnum=17918,Загоряны,ФАП,FAP,"213188, д. Загоряны, Круглянский р-н, Могилевская обл.",,54.208959,29.723753
566,Задневский ФАП,https://healthcare.by/instinfo.php?orgnum=21655,Заднево,ФАП,FAP,"д. Заднево, Толочинский р-н, Витебская обл.",,54.450962,29.742608
567,Задровьевский ФАП,https://healthcare.by/instinfo.php?orgnum=15283,Задровье,ФАП,FAP,"ул. Парковая, 2, 211398, д. Задровье, Оршанский р-н, Витебская обл.",,54.503971,30.123638
568,Задубенский ФАП,https://healthcare.by/instinfo.php?orgnum=17731,Задубье,ФАП,FAP,"ул. Партизанская, 3, 225421, д. Задубье, Ганцевичский р-н, Брестская обл.",,52.533403,26.453041
569,Задубровский ФАП,https://healthcare.by/instinfo.php?orgnum=15072,Задубровье,ФАП,FAP,"211331, п/о Задубровье, д. Задубровье, Витебский р-н, Витебская обл.",http://vgcp.by,55.349834,30.659303
570,Зажевичский ФАП,https://healthcare.by/instinfo.php?orgnum=17331,Зажевичи,ФАП,FAP,"ул. Советская, 48, 223717, аг. Зажевичи, Солигорский р-н, Минская обл.",,52.788443,27.643856
571,Зайковский ФАП,https://healthcare.by/instinfo.php?orgnum=15592,Зайково,ФАП,FAP,"211574, д. Зайково, Городокский р-н, Витебская обл.",,55.733401,30.516103
572,Закальнецкий ФАП,https://healthcare.by/instinfo.php?orgnum=15375,Закальное,ФАП,FAP,"ул. Первомайская, 22, 223835, д. Закальное, Любанский р-н, Минская обл.",,52.766157,27.805301
573,Залесовичский ФАП,https://healthcare.by/instinfo.php?orgnum=16398,Залесовичи,ФАП,FAP,"ул. Молодежная, 2, 213505, д. Залесовичи, Кричевский р-н, Могилевская обл.",,53.725265,31.634577
574,Залесский ФАП,https://healthcare.by/instinfo.php?orgnum=17652,Залесье,ФАП,FAP,"Горянский с/с, 211290, д. Залесье, Полоцкий р-н, Витебская обл.",,55.416565,29.165054
575,Залесский ФАП,https://healthcare.by/instinfo.php?orgnum=28055,Залесье,ФАП,FAP,"ул. Советская, 2, 247160, д. Залесье, Чечерский р-н, Гомельская обл.",,52.862364,31.175026
576,Залесский ФАП,https://healthcare.by/instinfo.php?orgnum=16071,Залесье,ФАП,FAP,"ул. Центральная, 1А, 247923, д. Залесье, Петриковский р-н, Гомельская обл.",,52.348969,28.6664
577,Залешанский ФАП,https://healthcare.by/instinfo.php?orgnum=14967,Залешаны,ФАП,FAP,"ул. Молодежная, 6, 222651, д. Залешаны, Клецкий р-н, Минская обл.",,53.025792,26.481858
578,Залипский ФАП,https://healthcare.by/instinfo.php?orgnum=15706,Залипье,ФАП,FAP,"ул. Школьная, 1, 247023, д. Залипье, Гомельский р-н, Гомельская обл.",,52.457944,30.844868
579,Залужский ФАП,https://healthcare.by/instinfo.php?orgnum=17027,Залужье,ФАП,FAP,"ул. Ленина, 34, 222926, аг. Залужье, Стародорожский р-н, Минская обл.",,53.134767,28.16204
580,Залузьевский ФАП,https://healthcare.by/instinfo.php?orgnum=17786,Залузье,ФАП,FAP,"д. 48а, 225121, д. Залузье, Жабинковский р-н, Брестская обл.",,52.198177,24.151844
581,Залядынский ФАП,https://healthcare.by/instinfo.php?orgnum=19225,Залядынье,ФАП,FAP,"ул. Комсомольская, 13, 225896, д. Залядынье, Ивановский р-н, Брестская обл.",,51.989899,25.369097
